{
"type": "FeatureCollection",
"crs": { "type": "name", "properties": { "name": "urn:ogc:def:crs:OGC:1.3:CRS84" } },
                                                                                
"features": [
{ "type": "Feature", "properties": { "stop_id": "S1427", "stop_name": "Love Community", "stop_lat": 5.577230, "stop_lon": -0.233804, "sum_use": 1, "su_cnt": 1 }, "geometry": { "type": "Point", "coordinates": [ -0.233804002, 5.577229977 ] } },
{ "type": "Feature", "properties": { "stop_id": "S1435", "stop_name": "Vodafone Office 203", "stop_lat": 5.572850, "stop_lon": -0.216439, "sum_use": 6, "su_cnt": 2 }, "geometry": { "type": "Point", "coordinates": [ -0.216438994, 5.572850227 ] } },
{ "type": "Feature", "properties": { "stop_id": "S10", "stop_name": "Manhean Junction", "stop_lat": 5.679040, "stop_lon": -0.350009, "sum_use": 3, "su_cnt": 1 }, "geometry": { "type": "Point", "coordinates": [ -0.350009, 5.67904 ] } },
{ "type": "Feature", "properties": { "stop_id": "S100", "stop_name": "Market 140", "stop_lat": 5.538507, "stop_lon": -0.400462, "sum_use": 5, "su_cnt": 3 }, "geometry": { "type": "Point", "coordinates": [ -0.400461664, 5.538506667 ] } },
{ "type": "Feature", "properties": { "stop_id": "S1000", "stop_name": "Plaza 149", "stop_lat": 5.534170, "stop_lon": -0.235723, "sum_use": 11, "su_cnt": 6 }, "geometry": { "type": "Point", "coordinates": [ -0.235723334, 5.534169992 ] } },
{ "type": "Feature", "properties": { "stop_id": "S1001", "stop_name": "Total 447", "stop_lat": 5.535621, "stop_lon": -0.228926, "sum_use": 18, "su_cnt": 7 }, "geometry": { "type": "Point", "coordinates": [ -0.228925716, 5.535621371 ] } },
{ "type": "Feature", "properties": { "stop_id": "S1003", "stop_name": "Agbado", "stop_lat": 5.538527, "stop_lon": -0.215757, "sum_use": 5, "su_cnt": 3 }, "geometry": { "type": "Point", "coordinates": [ -0.215757333, 5.538526667 ] } },
{ "type": "Feature", "properties": { "stop_id": "S1005", "stop_name": "Timber Market 536", "stop_lat": 5.543240, "stop_lon": -0.216218, "sum_use": 2, "su_cnt": 1 }, "geometry": { "type": "Point", "coordinates": [ -0.216217995, 5.54324007 ] } },
{ "type": "Feature", "properties": { "stop_id": "S1007", "stop_name": "Galloway", "stop_lat": 5.547565, "stop_lon": -0.217718, "sum_use": 7, "su_cnt": 2 }, "geometry": { "type": "Point", "coordinates": [ -0.217717998, 5.547564983 ] } },
{ "type": "Feature", "properties": { "stop_id": "S101", "stop_name": "Washing Bay 140", "stop_lat": 5.537790, "stop_lon": -0.402923, "sum_use": 1, "su_cnt": 1 }, "geometry": { "type": "Point", "coordinates": [ -0.402922988, 5.537789822 ] } },
{ "type": "Feature", "properties": { "stop_id": "S1011", "stop_name": "Total 302", "stop_lat": 5.556975, "stop_lon": -0.231807, "sum_use": 9, "su_cnt": 3 }, "geometry": { "type": "Point", "coordinates": [ -0.231806502, 5.556975126 ] } },
{ "type": "Feature", "properties": { "stop_id": "S1013", "stop_name": "Ayigbe", "stop_lat": 5.552350, "stop_lon": -0.230566, "sum_use": 2, "su_cnt": 1 }, "geometry": { "type": "Point", "coordinates": [ -0.230566, 5.55235 ] } },
{ "type": "Feature", "properties": { "stop_id": "S1014", "stop_name": "Mortuary 155", "stop_lat": 5.541210, "stop_lon": -0.225258, "sum_use": 3, "su_cnt": 1 }, "geometry": { "type": "Point", "coordinates": [ -0.225258, 5.54121 ] } },
{ "type": "Feature", "properties": { "stop_id": "S1015", "stop_name": "UTC (Agbado)", "stop_lat": 5.538560, "stop_lon": -0.215260, "sum_use": 11, "su_cnt": 1 }, "geometry": { "type": "Point", "coordinates": [ -0.215259999, 5.538559914 ] } },
{ "type": "Feature", "properties": { "stop_id": "S1018", "stop_name": "Ayigbe Town 303", "stop_lat": 5.553890, "stop_lon": -0.231403, "sum_use": 6, "su_cnt": 4 }, "geometry": { "type": "Point", "coordinates": [ -0.231403, 5.55389 ] } },
{ "type": "Feature", "properties": { "stop_id": "S102", "stop_name": "Amanfro", "stop_lat": 5.535723, "stop_lon": -0.412741, "sum_use": 13, "su_cnt": 8 }, "geometry": { "type": "Point", "coordinates": [ -0.412741, 5.535723333 ] } },
{ "type": "Feature", "properties": { "stop_id": "S1022", "stop_name": "UTC (Agbado)", "stop_lat": 5.538020, "stop_lon": -0.218211, "sum_use": 14, "su_cnt": 3 }, "geometry": { "type": "Point", "coordinates": [ -0.218211003, 5.538020134 ] } },
{ "type": "Feature", "properties": { "stop_id": "S1023", "stop_name": "Total 302", "stop_lat": 5.558023, "stop_lon": -0.231264, "sum_use": 6, "su_cnt": 4 }, "geometry": { "type": "Point", "coordinates": [ -0.231263667, 5.558023453 ] } },
{ "type": "Feature", "properties": { "stop_id": "S1025", "stop_name": "Pamprom 155", "stop_lat": 5.563353, "stop_lon": -0.232579, "sum_use": 12, "su_cnt": 4 }, "geometry": { "type": "Point", "coordinates": [ -0.23257867, 5.56335338 ] } },
{ "type": "Feature", "properties": { "stop_id": "S1032", "stop_name": "GLICO", "stop_lat": 5.557640, "stop_lon": -0.212383, "sum_use": 2, "su_cnt": 1 }, "geometry": { "type": "Point", "coordinates": [ -0.212383, 5.55764 ] } },
{ "type": "Feature", "properties": { "stop_id": "S1037", "stop_name": "Caprice", "stop_lat": 5.582820, "stop_lon": -0.216685, "sum_use": 1, "su_cnt": 1 }, "geometry": { "type": "Point", "coordinates": [ -0.216685, 5.58282 ] } },
{ "type": "Feature", "properties": { "stop_id": "S1038", "stop_name": "Market 224", "stop_lat": 5.590800, "stop_lon": -0.216965, "sum_use": 9, "su_cnt": 3 }, "geometry": { "type": "Point", "coordinates": [ -0.216965, 5.590799967 ] } },
{ "type": "Feature", "properties": { "stop_id": "S1039", "stop_name": "Filling Station 156", "stop_lat": 5.594150, "stop_lon": -0.216658, "sum_use": 10, "su_cnt": 2 }, "geometry": { "type": "Point", "coordinates": [ -0.216658004, 5.594150066 ] } },
{ "type": "Feature", "properties": { "stop_id": "S1051", "stop_name": "Polo Junction 345", "stop_lat": 5.598400, "stop_lon": -0.212234, "sum_use": 1, "su_cnt": 1 }, "geometry": { "type": "Point", "coordinates": [ -0.212234005, 5.598400116 ] } },
{ "type": "Feature", "properties": { "stop_id": "S1052", "stop_name": "Bodesh", "stop_lat": 5.596360, "stop_lon": -0.209835, "sum_use": 2, "su_cnt": 1 }, "geometry": { "type": "Point", "coordinates": [ -0.209835, 5.59636 ] } },
{ "type": "Feature", "properties": { "stop_id": "S1056", "stop_name": "Sunshine 400", "stop_lat": 5.594650, "stop_lon": -0.216799, "sum_use": 2, "su_cnt": 1 }, "geometry": { "type": "Point", "coordinates": [ -0.216799006, 5.594649792 ] } },
{ "type": "Feature", "properties": { "stop_id": "S1057", "stop_name": "Roadside 159", "stop_lat": 5.591720, "stop_lon": -0.216901, "sum_use": 2, "su_cnt": 1 }, "geometry": { "type": "Point", "coordinates": [ -0.216901, 5.59172 ] } },
{ "type": "Feature", "properties": { "stop_id": "S106", "stop_name": "SCC", "stop_lat": 5.547300, "stop_lon": -0.338736, "sum_use": 2, "su_cnt": 2 }, "geometry": { "type": "Point", "coordinates": [ -0.338735998, 5.547299862 ] } },
{ "type": "Feature", "properties": { "stop_id": "S1061", "stop_name": "Coffee Shop", "stop_lat": 5.567220, "stop_lon": -0.169447, "sum_use": 1, "su_cnt": 1 }, "geometry": { "type": "Point", "coordinates": [ -0.169447, 5.56722 ] } },
{ "type": "Feature", "properties": { "stop_id": "S1062", "stop_name": "Labone Junction 163", "stop_lat": 5.563980, "stop_lon": -0.172133, "sum_use": 2, "su_cnt": 2 }, "geometry": { "type": "Point", "coordinates": [ -0.172132999, 5.563980103 ] } },
{ "type": "Feature", "properties": { "stop_id": "S1064", "stop_name": "Danquah 1st", "stop_lat": 5.566310, "stop_lon": -0.179096, "sum_use": 1, "su_cnt": 1 }, "geometry": { "type": "Point", "coordinates": [ -0.179096, 5.56631 ] } },
{ "type": "Feature", "properties": { "stop_id": "S1065", "stop_name": "Koala Supermarket", "stop_lat": 5.566200, "stop_lon": -0.181151, "sum_use": 3, "su_cnt": 2 }, "geometry": { "type": "Point", "coordinates": [ -0.181151003, 5.56619978 ] } },
{ "type": "Feature", "properties": { "stop_id": "S1067", "stop_name": "Afridom", "stop_lat": 5.564460, "stop_lon": -0.181385, "sum_use": 1, "su_cnt": 1 }, "geometry": { "type": "Point", "coordinates": [ -0.181385, 5.56446 ] } },
{ "type": "Feature", "properties": { "stop_id": "S1068", "stop_name": "Bank 002", "stop_lat": 5.561000, "stop_lon": -0.181934, "sum_use": 1, "su_cnt": 1 }, "geometry": { "type": "Point", "coordinates": [ -0.181934, 5.561 ] } },
{ "type": "Feature", "properties": { "stop_id": "S1069", "stop_name": "Papaye 002", "stop_lat": 5.559612, "stop_lon": -0.182148, "sum_use": 12, "su_cnt": 4 }, "geometry": { "type": "Point", "coordinates": [ -0.182148252, 5.559612393 ] } },
{ "type": "Feature", "properties": { "stop_id": "S1070", "stop_name": "Shell 002", "stop_lat": 5.556620, "stop_lon": -0.182655, "sum_use": 1, "su_cnt": 1 }, "geometry": { "type": "Point", "coordinates": [ -0.182655007, 5.556620121 ] } },
{ "type": "Feature", "properties": { "stop_id": "S1071", "stop_name": "Ministries", "stop_lat": 5.548740, "stop_lon": -0.194817, "sum_use": 1, "su_cnt": 1 }, "geometry": { "type": "Point", "coordinates": [ -0.194817007, 5.54873991 ] } },
{ "type": "Feature", "properties": { "stop_id": "S1075", "stop_name": "Sumkam", "stop_lat": 5.560620, "stop_lon": -0.186797, "sum_use": 1, "su_cnt": 1 }, "geometry": { "type": "Point", "coordinates": [ -0.186797, 5.56062 ] } },
{ "type": "Feature", "properties": { "stop_id": "S1076", "stop_name": "Junction 163", "stop_lat": 5.566240, "stop_lon": -0.184642, "sum_use": 1, "su_cnt": 1 }, "geometry": { "type": "Point", "coordinates": [ -0.184642, 5.56624 ] } },
{ "type": "Feature", "properties": { "stop_id": "S1077", "stop_name": "Labone Junction 163", "stop_lat": 5.563450, "stop_lon": -0.172363, "sum_use": 1, "su_cnt": 1 }, "geometry": { "type": "Point", "coordinates": [ -0.172362998, 5.56344986 ] } },
{ "type": "Feature", "properties": { "stop_id": "S1078", "stop_name": "Labone School", "stop_lat": 5.564830, "stop_lon": -0.171056, "sum_use": 2, "su_cnt": 1 }, "geometry": { "type": "Point", "coordinates": [ -0.171056, 5.56483 ] } },
{ "type": "Feature", "properties": { "stop_id": "S1079", "stop_name": "Coffee Shop", "stop_lat": 5.568980, "stop_lon": -0.168899, "sum_use": 1, "su_cnt": 1 }, "geometry": { "type": "Point", "coordinates": [ -0.168899, 5.56898 ] } },
{ "type": "Feature", "properties": { "stop_id": "S108", "stop_name": "Filling Station", "stop_lat": 5.551470, "stop_lon": -0.328514, "sum_use": 1, "su_cnt": 1 }, "geometry": { "type": "Point", "coordinates": [ -0.328514, 5.55147 ] } },
{ "type": "Feature", "properties": { "stop_id": "S1088", "stop_name": "Market 488", "stop_lat": 5.550110, "stop_lon": -0.220340, "sum_use": 6, "su_cnt": 1 }, "geometry": { "type": "Point", "coordinates": [ -0.220339999, 5.550109863 ] } },
{ "type": "Feature", "properties": { "stop_id": "S109", "stop_name": "Sakaman Junction", "stop_lat": 5.576340, "stop_lon": -0.274154, "sum_use": 1, "su_cnt": 1 }, "geometry": { "type": "Point", "coordinates": [ -0.274154, 5.57634 ] } },
{ "type": "Feature", "properties": { "stop_id": "S1093", "stop_name": "Traffic Light 165", "stop_lat": 5.559070, "stop_lon": -0.230633, "sum_use": 3, "su_cnt": 1 }, "geometry": { "type": "Point", "coordinates": [ -0.230633, 5.55907 ] } },
{ "type": "Feature", "properties": { "stop_id": "S1094", "stop_name": "Pamprom 155", "stop_lat": 5.563480, "stop_lon": -0.232915, "sum_use": 6, "su_cnt": 1 }, "geometry": { "type": "Point", "coordinates": [ -0.232914999, 5.5634799 ] } },
{ "type": "Feature", "properties": { "stop_id": "S1095", "stop_name": "Kaneshie", "stop_lat": 5.564230, "stop_lon": -0.234270, "sum_use": 2, "su_cnt": 1 }, "geometry": { "type": "Point", "coordinates": [ -0.23427, 5.56423 ] } },
{ "type": "Feature", "properties": { "stop_id": "S1096", "stop_name": "First Light", "stop_lat": 5.569510, "stop_lon": -0.242754, "sum_use": 2, "su_cnt": 2 }, "geometry": { "type": "Point", "coordinates": [ -0.242753506, 5.569509983 ] } },
{ "type": "Feature", "properties": { "stop_id": "S1097", "stop_name": "Darkuman 302", "stop_lat": 5.577340, "stop_lon": -0.255653, "sum_use": 3, "su_cnt": 1 }, "geometry": { "type": "Point", "coordinates": [ -0.255653, 5.57734 ] } },
{ "type": "Feature", "properties": { "stop_id": "S11", "stop_name": "Three Junction", "stop_lat": 5.696300, "stop_lon": -0.317257, "sum_use": 1, "su_cnt": 1 }, "geometry": { "type": "Point", "coordinates": [ -0.317257, 5.6963 ] } },
{ "type": "Feature", "properties": { "stop_id": "S110", "stop_name": "Darkuman Junction 225", "stop_lat": 5.576346, "stop_lon": -0.254699, "sum_use": 10, "su_cnt": 7 }, "geometry": { "type": "Point", "coordinates": [ -0.254699, 5.576346 ] } },
{ "type": "Feature", "properties": { "stop_id": "S1101", "stop_name": "Goil 165", "stop_lat": 5.573400, "stop_lon": -0.249828, "sum_use": 1, "su_cnt": 1 }, "geometry": { "type": "Point", "coordinates": [ -0.249828, 5.5734 ] } },
{ "type": "Feature", "properties": { "stop_id": "S1102", "stop_name": "Kaneshie Societe Generale", "stop_lat": 5.564317, "stop_lon": -0.234364, "sum_use": 32, "su_cnt": 4 }, "geometry": { "type": "Point", "coordinates": [ -0.234364498, 5.564317465 ] } },
{ "type": "Feature", "properties": { "stop_id": "S1103", "stop_name": "Sabolai", "stop_lat": 5.555440, "stop_lon": -0.226168, "sum_use": 7, "su_cnt": 1 }, "geometry": { "type": "Point", "coordinates": [ -0.226168007, 5.555439949 ] } },
{ "type": "Feature", "properties": { "stop_id": "S1105", "stop_name": "Agbogbloshie Station No. 2", "stop_lat": 5.550820, "stop_lon": -0.221160, "sum_use": 5, "su_cnt": 1 }, "geometry": { "type": "Point", "coordinates": [ -0.22116, 5.55082 ] } },
{ "type": "Feature", "properties": { "stop_id": "S1106", "stop_name": "New Makola No. 2 Market - Agbobloshie", "stop_lat": 5.547700, "stop_lon": -0.217965, "sum_use": 6, "su_cnt": 1 }, "geometry": { "type": "Point", "coordinates": [ -0.217965, 5.5477 ] } },
{ "type": "Feature", "properties": { "stop_id": "S111", "stop_name": "Kaneshie", "stop_lat": 5.565635, "stop_lon": -0.236896, "sum_use": 39, "su_cnt": 5 }, "geometry": { "type": "Point", "coordinates": [ -0.236895997, 5.565635085 ] } },
{ "type": "Feature", "properties": { "stop_id": "S1110", "stop_name": "Gaskia", "stop_lat": 5.556360, "stop_lon": -0.235831, "sum_use": 7, "su_cnt": 3 }, "geometry": { "type": "Point", "coordinates": [ -0.235830501, 5.556360006 ] } },
{ "type": "Feature", "properties": { "stop_id": "S1111", "stop_name": "Zongo Junction 410", "stop_lat": 5.557497, "stop_lon": -0.240522, "sum_use": 7, "su_cnt": 3 }, "geometry": { "type": "Point", "coordinates": [ -0.240522335, 5.557496707 ] } },
{ "type": "Feature", "properties": { "stop_id": "S1112", "stop_name": "Japs House", "stop_lat": 5.557660, "stop_lon": -0.240742, "sum_use": 2, "su_cnt": 1 }, "geometry": { "type": "Point", "coordinates": [ -0.240742, 5.55766 ] } },
{ "type": "Feature", "properties": { "stop_id": "S1117", "stop_name": "Junction 166", "stop_lat": 5.555290, "stop_lon": -0.254702, "sum_use": 6, "su_cnt": 1 }, "geometry": { "type": "Point", "coordinates": [ -0.254702, 5.55529 ] } },
{ "type": "Feature", "properties": { "stop_id": "S1121", "stop_name": "Road Side 166", "stop_lat": 5.553550, "stop_lon": -0.254296, "sum_use": 4, "su_cnt": 1 }, "geometry": { "type": "Point", "coordinates": [ -0.254296, 5.55355 ] } },
{ "type": "Feature", "properties": { "stop_id": "S1122", "stop_name": "Paa Willie", "stop_lat": 5.559710, "stop_lon": -0.251631, "sum_use": 15, "su_cnt": 2 }, "geometry": { "type": "Point", "coordinates": [ -0.251630992, 5.559710026 ] } },
{ "type": "Feature", "properties": { "stop_id": "S1123", "stop_name": "Zongo Junction 166", "stop_lat": 5.557766, "stop_lon": -0.239798, "sum_use": 17, "su_cnt": 8 }, "geometry": { "type": "Point", "coordinates": [ -0.239797798, 5.557766056 ] } },
{ "type": "Feature", "properties": { "stop_id": "S1125", "stop_name": "Happy Days 166", "stop_lat": 5.555990, "stop_lon": -0.232976, "sum_use": 1, "su_cnt": 1 }, "geometry": { "type": "Point", "coordinates": [ -0.232976, 5.55599 ] } },
{ "type": "Feature", "properties": { "stop_id": "S1129", "stop_name": "Goil 303", "stop_lat": 5.572850, "stop_lon": -0.248525, "sum_use": 3, "su_cnt": 2 }, "geometry": { "type": "Point", "coordinates": [ -0.248525001, 5.572849989 ] } },
{ "type": "Feature", "properties": { "stop_id": "S1133", "stop_name": "MMT", "stop_lat": 5.564500, "stop_lon": -0.234430, "sum_use": 5, "su_cnt": 2 }, "geometry": { "type": "Point", "coordinates": [ -0.23443, 5.5645 ] } },
{ "type": "Feature", "properties": { "stop_id": "S1135", "stop_name": "Quarters 2", "stop_lat": 5.571280, "stop_lon": -0.245596, "sum_use": 2, "su_cnt": 1 }, "geometry": { "type": "Point", "coordinates": [ -0.245596, 5.57128 ] } },
{ "type": "Feature", "properties": { "stop_id": "S1139", "stop_name": "Korle Bu Mobil", "stop_lat": 5.535380, "stop_lon": -0.229992, "sum_use": 2, "su_cnt": 2 }, "geometry": { "type": "Point", "coordinates": [ -0.229992, 5.53538 ] } },
{ "type": "Feature", "properties": { "stop_id": "S1145", "stop_name": "Bukom", "stop_lat": 5.538550, "stop_lon": -0.211671, "sum_use": 1, "su_cnt": 1 }, "geometry": { "type": "Point", "coordinates": [ -0.211671, 5.53855 ] } },
{ "type": "Feature", "properties": { "stop_id": "S1149", "stop_name": "St. Mary's\/Barber", "stop_lat": 5.536847, "stop_lon": -0.223547, "sum_use": 8, "su_cnt": 4 }, "geometry": { "type": "Point", "coordinates": [ -0.223547333, 5.536846667 ] } },
{ "type": "Feature", "properties": { "stop_id": "S115", "stop_name": "STC", "stop_lat": 5.565400, "stop_lon": -0.225300, "sum_use": 1, "su_cnt": 1 }, "geometry": { "type": "Point", "coordinates": [ -0.2253, 5.5654 ] } },
{ "type": "Feature", "properties": { "stop_id": "S1153", "stop_name": "Awotse Kojo", "stop_lat": 5.534794, "stop_lon": -0.232909, "sum_use": 17, "su_cnt": 11 }, "geometry": { "type": "Point", "coordinates": [ -0.2329095, 5.53479375 ] } },
{ "type": "Feature", "properties": { "stop_id": "S1154", "stop_name": "Shell Filling Station 463", "stop_lat": 5.533750, "stop_lon": -0.237963, "sum_use": 5, "su_cnt": 4 }, "geometry": { "type": "Point", "coordinates": [ -0.237963334, 5.533750057 ] } },
{ "type": "Feature", "properties": { "stop_id": "S116", "stop_name": "Mangoase 065", "stop_lat": 5.586240, "stop_lon": -0.248295, "sum_use": 2, "su_cnt": 1 }, "geometry": { "type": "Point", "coordinates": [ -0.248295, 5.58624 ] } },
{ "type": "Feature", "properties": { "stop_id": "S1164", "stop_name": "Light House 485", "stop_lat": 5.533587, "stop_lon": -0.211741, "sum_use": 7, "su_cnt": 5 }, "geometry": { "type": "Point", "coordinates": [ -0.211741, 5.533586661 ] } },
{ "type": "Feature", "properties": { "stop_id": "S1166", "stop_name": "Bishop", "stop_lat": 5.543970, "stop_lon": -0.204497, "sum_use": 20, "su_cnt": 7 }, "geometry": { "type": "Point", "coordinates": [ -0.2044975, 5.54397 ] } },
{ "type": "Feature", "properties": { "stop_id": "S117", "stop_name": "Quarters 306", "stop_lat": 5.585968, "stop_lon": -0.251554, "sum_use": 8, "su_cnt": 5 }, "geometry": { "type": "Point", "coordinates": [ -0.251554005, 5.585967541 ] } },
{ "type": "Feature", "properties": { "stop_id": "S1171", "stop_name": "Post Office 172", "stop_lat": 5.542140, "stop_lon": -0.208722, "sum_use": 2, "su_cnt": 2 }, "geometry": { "type": "Point", "coordinates": [ -0.208721995, 5.542140007 ] } },
{ "type": "Feature", "properties": { "stop_id": "S1173", "stop_name": "Agbalolo", "stop_lat": 5.538590, "stop_lon": -0.215012, "sum_use": 2, "su_cnt": 1 }, "geometry": { "type": "Point", "coordinates": [ -0.215012, 5.53859 ] } },
{ "type": "Feature", "properties": { "stop_id": "S1179", "stop_name": "Abolo Junction", "stop_lat": 5.539985, "stop_lon": -0.251638, "sum_use": 3, "su_cnt": 2 }, "geometry": { "type": "Point", "coordinates": [ -0.2516385, 5.539985 ] } },
{ "type": "Feature", "properties": { "stop_id": "S1183", "stop_name": "El wak", "stop_lat": 5.587340, "stop_lon": -0.174806, "sum_use": 22, "su_cnt": 3 }, "geometry": { "type": "Point", "coordinates": [ -0.174805999, 5.587339878 ] } },
{ "type": "Feature", "properties": { "stop_id": "S1187", "stop_name": "Police Hospital 002", "stop_lat": 5.567950, "stop_lon": -0.180797, "sum_use": 6, "su_cnt": 2 }, "geometry": { "type": "Point", "coordinates": [ -0.180796996, 5.56795001 ] } },
{ "type": "Feature", "properties": { "stop_id": "S1188", "stop_name": "Koala Supermarket", "stop_lat": 5.565848, "stop_lon": -0.181160, "sum_use": 23, "su_cnt": 7 }, "geometry": { "type": "Point", "coordinates": [ -0.181159604, 5.565848064 ] } },
{ "type": "Feature", "properties": { "stop_id": "S1189", "stop_name": "Shell 002", "stop_lat": 5.556360, "stop_lon": -0.182718, "sum_use": 5, "su_cnt": 4 }, "geometry": { "type": "Point", "coordinates": [ -0.182717671, 5.556359927 ] } },
{ "type": "Feature", "properties": { "stop_id": "S1191", "stop_name": "First Stop 416", "stop_lat": 5.549660, "stop_lon": -0.189749, "sum_use": 3, "su_cnt": 1 }, "geometry": { "type": "Point", "coordinates": [ -0.189749002, 5.549660206 ] } },
{ "type": "Feature", "properties": { "stop_id": "S1192", "stop_name": "Ministries", "stop_lat": 5.548720, "stop_lon": -0.194670, "sum_use": 2, "su_cnt": 1 }, "geometry": { "type": "Point", "coordinates": [ -0.194670007, 5.548719883 ] } },
{ "type": "Feature", "properties": { "stop_id": "S1193", "stop_name": "Tema Station", "stop_lat": 5.548600, "stop_lon": -0.201018, "sum_use": 4, "su_cnt": 1 }, "geometry": { "type": "Point", "coordinates": [ -0.201018, 5.5486 ] } },
{ "type": "Feature", "properties": { "stop_id": "S1197", "stop_name": "Curve 174", "stop_lat": 5.585980, "stop_lon": -0.236899, "sum_use": 1, "su_cnt": 1 }, "geometry": { "type": "Point", "coordinates": [ -0.236899, 5.58598 ] } },
{ "type": "Feature", "properties": { "stop_id": "S1198", "stop_name": "Holy Trinity Junction", "stop_lat": 5.588260, "stop_lon": -0.234449, "sum_use": 1, "su_cnt": 1 }, "geometry": { "type": "Point", "coordinates": [ -0.234449, 5.58826 ] } },
{ "type": "Feature", "properties": { "stop_id": "S1199", "stop_name": "North Kaneshie Junction", "stop_lat": 5.588620, "stop_lon": -0.233688, "sum_use": 2, "su_cnt": 2 }, "geometry": { "type": "Point", "coordinates": [ -0.233688, 5.58862 ] } },
{ "type": "Feature", "properties": { "stop_id": "S12", "stop_name": "Timber Market 005", "stop_lat": 5.697450, "stop_lon": -0.315010, "sum_use": 1, "su_cnt": 1 }, "geometry": { "type": "Point", "coordinates": [ -0.31501, 5.69745 ] } },
{ "type": "Feature", "properties": { "stop_id": "S1201", "stop_name": "Industrial Area", "stop_lat": 5.590710, "stop_lon": -0.229895, "sum_use": 1, "su_cnt": 1 }, "geometry": { "type": "Point", "coordinates": [ -0.229895, 5.59071 ] } },
{ "type": "Feature", "properties": { "stop_id": "S1202", "stop_name": "North Kaneshie Melcom", "stop_lat": 5.588490, "stop_lon": -0.227391, "sum_use": 4, "su_cnt": 2 }, "geometry": { "type": "Point", "coordinates": [ -0.227391, 5.58849 ] } },
{ "type": "Feature", "properties": { "stop_id": "S1204", "stop_name": "New Melcom", "stop_lat": 5.585120, "stop_lon": -0.221458, "sum_use": 1, "su_cnt": 1 }, "geometry": { "type": "Point", "coordinates": [ -0.221458, 5.58512 ] } },
{ "type": "Feature", "properties": { "stop_id": "S1205", "stop_name": "Vodafone Office", "stop_lat": 5.573483, "stop_lon": -0.216525, "sum_use": 43, "su_cnt": 3 }, "geometry": { "type": "Point", "coordinates": [ -0.216525, 5.573483333 ] } },
{ "type": "Feature", "properties": { "stop_id": "S1209", "stop_name": "Estate 174", "stop_lat": 5.574620, "stop_lon": -0.233005, "sum_use": 1, "su_cnt": 1 }, "geometry": { "type": "Point", "coordinates": [ -0.233005, 5.57462 ] } },
{ "type": "Feature", "properties": { "stop_id": "S121", "stop_name": "Quarters 306", "stop_lat": 5.586305, "stop_lon": -0.251435, "sum_use": 5, "su_cnt": 2 }, "geometry": { "type": "Point", "coordinates": [ -0.251434997, 5.586304903 ] } },
{ "type": "Feature", "properties": { "stop_id": "S1210", "stop_name": "Olabam", "stop_lat": 5.575610, "stop_lon": -0.238353, "sum_use": 12, "su_cnt": 6 }, "geometry": { "type": "Point", "coordinates": [ -0.238352666, 5.575610002 ] } },
{ "type": "Feature", "properties": { "stop_id": "S1212", "stop_name": "Filling Station 174", "stop_lat": 5.577410, "stop_lon": -0.238616, "sum_use": 6, "su_cnt": 2 }, "geometry": { "type": "Point", "coordinates": [ -0.238616, 5.57741 ] } },
{ "type": "Feature", "properties": { "stop_id": "S1214", "stop_name": "Fitter", "stop_lat": 5.581435, "stop_lon": -0.239061, "sum_use": 3, "su_cnt": 2 }, "geometry": { "type": "Point", "coordinates": [ -0.239061497, 5.581434965 ] } },
{ "type": "Feature", "properties": { "stop_id": "S1218", "stop_name": "Fitter", "stop_lat": 5.581440, "stop_lon": -0.238964, "sum_use": 3, "su_cnt": 2 }, "geometry": { "type": "Point", "coordinates": [ -0.238964006, 5.581439972 ] } },
{ "type": "Feature", "properties": { "stop_id": "S122", "stop_name": "Bubushie", "stop_lat": 5.586240, "stop_lon": -0.239798, "sum_use": 1, "su_cnt": 1 }, "geometry": { "type": "Point", "coordinates": [ -0.239798, 5.58624 ] } },
{ "type": "Feature", "properties": { "stop_id": "S1220", "stop_name": "Asore Danho 175", "stop_lat": 5.582900, "stop_lon": -0.241666, "sum_use": 2, "su_cnt": 1 }, "geometry": { "type": "Point", "coordinates": [ -0.241666, 5.5829 ] } },
{ "type": "Feature", "properties": { "stop_id": "S1221", "stop_name": "Datus 175", "stop_lat": 5.581780, "stop_lon": -0.242310, "sum_use": 8, "su_cnt": 2 }, "geometry": { "type": "Point", "coordinates": [ -0.24231, 5.58178 ] } },
{ "type": "Feature", "properties": { "stop_id": "S1222", "stop_name": "Vulganizer 247", "stop_lat": 5.582080, "stop_lon": -0.244466, "sum_use": 2, "su_cnt": 1 }, "geometry": { "type": "Point", "coordinates": [ -0.244466007, 5.582079887 ] } },
{ "type": "Feature", "properties": { "stop_id": "S1223", "stop_name": "Factory", "stop_lat": 5.580725, "stop_lon": -0.245646, "sum_use": 3, "su_cnt": 2 }, "geometry": { "type": "Point", "coordinates": [ -0.245646, 5.580724955 ] } },
{ "type": "Feature", "properties": { "stop_id": "S1224", "stop_name": "Faith", "stop_lat": 5.579990, "stop_lon": -0.246261, "sum_use": 3, "su_cnt": 1 }, "geometry": { "type": "Point", "coordinates": [ -0.246261, 5.57999 ] } },
{ "type": "Feature", "properties": { "stop_id": "S1225", "stop_name": "Faith", "stop_lat": 5.579860, "stop_lon": -0.247029, "sum_use": 10, "su_cnt": 2 }, "geometry": { "type": "Point", "coordinates": [ -0.247029, 5.57986 ] } },
{ "type": "Feature", "properties": { "stop_id": "S1228", "stop_name": "Old Station 177", "stop_lat": 5.580395, "stop_lon": -0.239742, "sum_use": 4, "su_cnt": 2 }, "geometry": { "type": "Point", "coordinates": [ -0.239742003, 5.580394983 ] } },
{ "type": "Feature", "properties": { "stop_id": "S1229", "stop_name": "Old Melcom", "stop_lat": 5.587430, "stop_lon": -0.227117, "sum_use": 3, "su_cnt": 2 }, "geometry": { "type": "Point", "coordinates": [ -0.227117, 5.58743 ] } },
{ "type": "Feature", "properties": { "stop_id": "S123", "stop_name": "Ayigbe Town 176", "stop_lat": 5.585360, "stop_lon": -0.238971, "sum_use": 3, "su_cnt": 1 }, "geometry": { "type": "Point", "coordinates": [ -0.238971, 5.58536 ] } },
{ "type": "Feature", "properties": { "stop_id": "S1235", "stop_name": "Complex", "stop_lat": 5.574855, "stop_lon": -0.227458, "sum_use": 3, "su_cnt": 2 }, "geometry": { "type": "Point", "coordinates": [ -0.2274575, 5.574855 ] } },
{ "type": "Feature", "properties": { "stop_id": "S1236", "stop_name": "Bongo Bar", "stop_lat": 5.573580, "stop_lon": -0.228887, "sum_use": 2, "su_cnt": 1 }, "geometry": { "type": "Point", "coordinates": [ -0.228887, 5.57358 ] } },
{ "type": "Feature", "properties": { "stop_id": "S1237", "stop_name": "Curve 175", "stop_lat": 5.571500, "stop_lon": -0.232558, "sum_use": 1, "su_cnt": 1 }, "geometry": { "type": "Point", "coordinates": [ -0.232558, 5.5715 ] } },
{ "type": "Feature", "properties": { "stop_id": "S1238", "stop_name": "Cocoa Clinic", "stop_lat": 5.571673, "stop_lon": -0.235789, "sum_use": 3, "su_cnt": 3 }, "geometry": { "type": "Point", "coordinates": [ -0.235789, 5.571673333 ] } },
{ "type": "Feature", "properties": { "stop_id": "S1239", "stop_name": "Bishop Bubuashie", "stop_lat": 5.571490, "stop_lon": -0.238426, "sum_use": 5, "su_cnt": 3 }, "geometry": { "type": "Point", "coordinates": [ -0.238426333, 5.57149 ] } },
{ "type": "Feature", "properties": { "stop_id": "S1240", "stop_name": "Cottage", "stop_lat": 5.573880, "stop_lon": -0.238068, "sum_use": 3, "su_cnt": 3 }, "geometry": { "type": "Point", "coordinates": [ -0.238068, 5.57388 ] } },
{ "type": "Feature", "properties": { "stop_id": "S1243", "stop_name": "Royal Cemetery", "stop_lat": 5.577470, "stop_lon": -0.238675, "sum_use": 4, "su_cnt": 3 }, "geometry": { "type": "Point", "coordinates": [ -0.2386745, 5.57747 ] } },
{ "type": "Feature", "properties": { "stop_id": "S1250", "stop_name": "Old Melcom 1", "stop_lat": 5.587880, "stop_lon": -0.226258, "sum_use": 1, "su_cnt": 1 }, "geometry": { "type": "Point", "coordinates": [ -0.226258, 5.58788 ] } },
{ "type": "Feature", "properties": { "stop_id": "S1251", "stop_name": "Circle Melcom", "stop_lat": 5.580240, "stop_lon": -0.220578, "sum_use": 1, "su_cnt": 1 }, "geometry": { "type": "Point", "coordinates": [ -0.220578, 5.58024 ] } },
{ "type": "Feature", "properties": { "stop_id": "S1252", "stop_name": "Asore Danho 011", "stop_lat": 5.575450, "stop_lon": -0.216729, "sum_use": 1, "su_cnt": 1 }, "geometry": { "type": "Point", "coordinates": [ -0.216729, 5.57545 ] } },
{ "type": "Feature", "properties": { "stop_id": "S1258", "stop_name": "Awudome Roundabout 1", "stop_lat": 5.572200, "stop_lon": -0.231090, "sum_use": 2, "su_cnt": 2 }, "geometry": { "type": "Point", "coordinates": [ -0.23109, 5.5722 ] } },
{ "type": "Feature", "properties": { "stop_id": "S1267", "stop_name": "Junction 176", "stop_lat": 5.579000, "stop_lon": -0.238887, "sum_use": 2, "su_cnt": 2 }, "geometry": { "type": "Point", "coordinates": [ -0.238886997, 5.579 ] } },
{ "type": "Feature", "properties": { "stop_id": "S1269", "stop_name": "Old Station 177", "stop_lat": 5.580460, "stop_lon": -0.239707, "sum_use": 3, "su_cnt": 2 }, "geometry": { "type": "Point", "coordinates": [ -0.2397075, 5.580459833 ] } },
{ "type": "Feature", "properties": { "stop_id": "S1271", "stop_name": "Ayigbe Town 176", "stop_lat": 5.582970, "stop_lon": -0.240332, "sum_use": 3, "su_cnt": 2 }, "geometry": { "type": "Point", "coordinates": [ -0.240332, 5.58297 ] } },
{ "type": "Feature", "properties": { "stop_id": "S1276", "stop_name": "Flats Junction", "stop_lat": 5.573650, "stop_lon": -0.231588, "sum_use": 3, "su_cnt": 2 }, "geometry": { "type": "Point", "coordinates": [ -0.231587999, 5.573650122 ] } },
{ "type": "Feature", "properties": { "stop_id": "S1277", "stop_name": "Roundabout, St. Theresa", "stop_lat": 5.572140, "stop_lon": -0.230823, "sum_use": 1, "su_cnt": 1 }, "geometry": { "type": "Point", "coordinates": [ -0.230823, 5.57214 ] } },
{ "type": "Feature", "properties": { "stop_id": "S1278", "stop_name": "Bridge 177", "stop_lat": 5.569100, "stop_lon": -0.228213, "sum_use": 1, "su_cnt": 1 }, "geometry": { "type": "Point", "coordinates": [ -0.228213, 5.5691 ] } },
{ "type": "Feature", "properties": { "stop_id": "S1279", "stop_name": "Graphic", "stop_lat": 5.555150, "stop_lon": -0.218173, "sum_use": 2, "su_cnt": 1 }, "geometry": { "type": "Point", "coordinates": [ -0.218172997, 5.555150032 ] } },
{ "type": "Feature", "properties": { "stop_id": "S1280", "stop_name": "Brewery", "stop_lat": 5.553510, "stop_lon": -0.214584, "sum_use": 1, "su_cnt": 1 }, "geometry": { "type": "Point", "coordinates": [ -0.214584, 5.55351 ] } },
{ "type": "Feature", "properties": { "stop_id": "S1284", "stop_name": "Curve 177", "stop_lat": 5.552270, "stop_lon": -0.214835, "sum_use": 2, "su_cnt": 1 }, "geometry": { "type": "Point", "coordinates": [ -0.214835, 5.55227 ] } },
{ "type": "Feature", "properties": { "stop_id": "S1285", "stop_name": "Cemetery Junction", "stop_lat": 5.568660, "stop_lon": -0.227572, "sum_use": 1, "su_cnt": 1 }, "geometry": { "type": "Point", "coordinates": [ -0.227572, 5.56866 ] } },
{ "type": "Feature", "properties": { "stop_id": "S1290", "stop_name": "Valley Inn", "stop_lat": 5.578400, "stop_lon": -0.244844, "sum_use": 3, "su_cnt": 1 }, "geometry": { "type": "Point", "coordinates": [ -0.244844005, 5.578400135 ] } },
{ "type": "Feature", "properties": { "stop_id": "S1291", "stop_name": "White House 178", "stop_lat": 5.576630, "stop_lon": -0.245677, "sum_use": 1, "su_cnt": 1 }, "geometry": { "type": "Point", "coordinates": [ -0.245676994, 5.576630116 ] } },
{ "type": "Feature", "properties": { "stop_id": "S1292", "stop_name": "Pentecost 178", "stop_lat": 5.575790, "stop_lon": -0.244184, "sum_use": 2, "su_cnt": 1 }, "geometry": { "type": "Point", "coordinates": [ -0.244184002, 5.575789928 ] } },
{ "type": "Feature", "properties": { "stop_id": "S1293", "stop_name": "Accra Academy 1", "stop_lat": 5.574640, "stop_lon": -0.243517, "sum_use": 1, "su_cnt": 1 }, "geometry": { "type": "Point", "coordinates": [ -0.243517, 5.57464 ] } },
{ "type": "Feature", "properties": { "stop_id": "S1294", "stop_name": "Accra Academy 2", "stop_lat": 5.573710, "stop_lon": -0.241981, "sum_use": 1, "su_cnt": 1 }, "geometry": { "type": "Point", "coordinates": [ -0.241981, 5.57371 ] } },
{ "type": "Feature", "properties": { "stop_id": "S1295", "stop_name": "Kaneshie Bishop", "stop_lat": 5.571650, "stop_lon": -0.238609, "sum_use": 1, "su_cnt": 1 }, "geometry": { "type": "Point", "coordinates": [ -0.238609, 5.57165 ] } },
{ "type": "Feature", "properties": { "stop_id": "S1297", "stop_name": "Mkt Roundabout 178", "stop_lat": 5.566405, "stop_lon": -0.233892, "sum_use": 3, "su_cnt": 2 }, "geometry": { "type": "Point", "coordinates": [ -0.233891502, 5.566405058 ] } },
{ "type": "Feature", "properties": { "stop_id": "S13", "stop_name": "Amasaman", "stop_lat": 5.704480, "stop_lon": -0.298623, "sum_use": 2, "su_cnt": 1 }, "geometry": { "type": "Point", "coordinates": [ -0.298623, 5.70448 ] } },
{ "type": "Feature", "properties": { "stop_id": "S1301", "stop_name": "Behind Accra Academy", "stop_lat": 5.573210, "stop_lon": -0.241136, "sum_use": 2, "su_cnt": 1 }, "geometry": { "type": "Point", "coordinates": [ -0.241136, 5.57321 ] } },
{ "type": "Feature", "properties": { "stop_id": "S1302", "stop_name": "2nd Stop Behind Accra Academy", "stop_lat": 5.573890, "stop_lon": -0.242329, "sum_use": 3, "su_cnt": 1 }, "geometry": { "type": "Point", "coordinates": [ -0.242329, 5.57389 ] } },
{ "type": "Feature", "properties": { "stop_id": "S1303", "stop_name": "Pentecost 178", "stop_lat": 5.575440, "stop_lon": -0.244281, "sum_use": 2, "su_cnt": 1 }, "geometry": { "type": "Point", "coordinates": [ -0.244280994, 5.57543993 ] } },
{ "type": "Feature", "properties": { "stop_id": "S1304", "stop_name": "White House 178", "stop_lat": 5.576570, "stop_lon": -0.245598, "sum_use": 1, "su_cnt": 1 }, "geometry": { "type": "Point", "coordinates": [ -0.245598003, 5.576570034 ] } },
{ "type": "Feature", "properties": { "stop_id": "S1305", "stop_name": "Valley Inn", "stop_lat": 5.578430, "stop_lon": -0.244663, "sum_use": 3, "su_cnt": 1 }, "geometry": { "type": "Point", "coordinates": [ -0.244663, 5.578430176 ] } },
{ "type": "Feature", "properties": { "stop_id": "S1306", "stop_name": "Control Junction", "stop_lat": 5.577360, "stop_lon": -0.242878, "sum_use": 1, "su_cnt": 1 }, "geometry": { "type": "Point", "coordinates": [ -0.242878, 5.57736 ] } },
{ "type": "Feature", "properties": { "stop_id": "S1312", "stop_name": "Timber Market", "stop_lat": 5.543087, "stop_lon": -0.216124, "sum_use": 7, "su_cnt": 3 }, "geometry": { "type": "Point", "coordinates": [ -0.216123665, 5.543086688 ] } },
{ "type": "Feature", "properties": { "stop_id": "S1313", "stop_name": "Arena", "stop_lat": 5.544800, "stop_lon": -0.216699, "sum_use": 14, "su_cnt": 5 }, "geometry": { "type": "Point", "coordinates": [ -0.216699, 5.5448 ] } },
{ "type": "Feature", "properties": { "stop_id": "S1317", "stop_name": "Roundabout 185", "stop_lat": 5.535920, "stop_lon": -0.213750, "sum_use": 2, "su_cnt": 1 }, "geometry": { "type": "Point", "coordinates": [ -0.213750005, 5.535920143 ] } },
{ "type": "Feature", "properties": { "stop_id": "S1318", "stop_name": "Korle Bu Junction 185", "stop_lat": 5.529690, "stop_lon": -0.226001, "sum_use": 3, "su_cnt": 1 }, "geometry": { "type": "Point", "coordinates": [ -0.226000994, 5.529689789 ] } },
{ "type": "Feature", "properties": { "stop_id": "S1319", "stop_name": "Korle Bu Junction 185", "stop_lat": 5.529160, "stop_lon": -0.228612, "sum_use": 3, "su_cnt": 1 }, "geometry": { "type": "Point", "coordinates": [ -0.228612006, 5.529160023 ] } },
{ "type": "Feature", "properties": { "stop_id": "S1320", "stop_name": "White House 473", "stop_lat": 5.527582, "stop_lon": -0.236279, "sum_use": 12, "su_cnt": 6 }, "geometry": { "type": "Point", "coordinates": [ -0.236279398, 5.527581978 ] } },
{ "type": "Feature", "properties": { "stop_id": "S1321", "stop_name": "Galilee", "stop_lat": 5.527120, "stop_lon": -0.239463, "sum_use": 6, "su_cnt": 3 }, "geometry": { "type": "Point", "coordinates": [ -0.239462502, 5.527120113 ] } },
{ "type": "Feature", "properties": { "stop_id": "S1322", "stop_name": "T Garden 521", "stop_lat": 5.526980, "stop_lon": -0.241652, "sum_use": 3, "su_cnt": 2 }, "geometry": { "type": "Point", "coordinates": [ -0.241652496, 5.526979923 ] } },
{ "type": "Feature", "properties": { "stop_id": "S1323", "stop_name": "Bridge 521", "stop_lat": 5.526370, "stop_lon": -0.249082, "sum_use": 2, "su_cnt": 1 }, "geometry": { "type": "Point", "coordinates": [ -0.249082, 5.52637 ] } },
{ "type": "Feature", "properties": { "stop_id": "S1327", "stop_name": "Rayposh Hotel Junction", "stop_lat": 5.604880, "stop_lon": -0.216744, "sum_use": 1, "su_cnt": 1 }, "geometry": { "type": "Point", "coordinates": [ -0.216744, 5.60488 ] } },
{ "type": "Feature", "properties": { "stop_id": "S1331", "stop_name": "Abelemkpe", "stop_lat": 5.609380, "stop_lon": -0.210393, "sum_use": 11, "su_cnt": 7 }, "geometry": { "type": "Point", "coordinates": [ -0.210393, 5.60938 ] } },
{ "type": "Feature", "properties": { "stop_id": "S1333", "stop_name": "PBC Perez Junction", "stop_lat": 5.607830, "stop_lon": -0.208087, "sum_use": 1, "su_cnt": 1 }, "geometry": { "type": "Point", "coordinates": [ -0.208087, 5.60783 ] } },
{ "type": "Feature", "properties": { "stop_id": "S1336", "stop_name": "Police Station 400", "stop_lat": 5.592386, "stop_lon": -0.204243, "sum_use": 19, "su_cnt": 8 }, "geometry": { "type": "Point", "coordinates": [ -0.204242747, 5.592386305 ] } },
{ "type": "Feature", "properties": { "stop_id": "S1337", "stop_name": "Five Five", "stop_lat": 5.589694, "stop_lon": -0.207225, "sum_use": 12, "su_cnt": 8 }, "geometry": { "type": "Point", "coordinates": [ -0.207225125, 5.589693725 ] } },
{ "type": "Feature", "properties": { "stop_id": "S1338", "stop_name": "Agbajina", "stop_lat": 5.588080, "stop_lon": -0.207514, "sum_use": 1, "su_cnt": 1 }, "geometry": { "type": "Point", "coordinates": [ -0.207514, 5.58808 ] } },
{ "type": "Feature", "properties": { "stop_id": "S1339", "stop_name": "Total 186", "stop_lat": 5.585773, "stop_lon": -0.207877, "sum_use": 5, "su_cnt": 3 }, "geometry": { "type": "Point", "coordinates": [ -0.207877328, 5.585773309 ] } },
{ "type": "Feature", "properties": { "stop_id": "S1340", "stop_name": "Mallam Atta", "stop_lat": 5.581385, "stop_lon": -0.209197, "sum_use": 5, "su_cnt": 3 }, "geometry": { "type": "Point", "coordinates": [ -0.209197499, 5.581384897 ] } },
{ "type": "Feature", "properties": { "stop_id": "S1341", "stop_name": "Asantewa", "stop_lat": 5.576400, "stop_lon": -0.211023, "sum_use": 2, "su_cnt": 1 }, "geometry": { "type": "Point", "coordinates": [ -0.211023, 5.5764 ] } },
{ "type": "Feature", "properties": { "stop_id": "S1348", "stop_name": "Dansoman Junction 251", "stop_lat": 5.574040, "stop_lon": -0.252797, "sum_use": 2, "su_cnt": 2 }, "geometry": { "type": "Point", "coordinates": [ -0.252797, 5.57404 ] } },
{ "type": "Feature", "properties": { "stop_id": "S135", "stop_name": "Nima Main Market", "stop_lat": 5.581110, "stop_lon": -0.197356, "sum_use": 1, "su_cnt": 1 }, "geometry": { "type": "Point", "coordinates": [ -0.197356, 5.58111 ] } },
{ "type": "Feature", "properties": { "stop_id": "S1350", "stop_name": "Kaneshie Market Station", "stop_lat": 5.565013, "stop_lon": -0.235657, "sum_use": 59, "su_cnt": 10 }, "geometry": { "type": "Point", "coordinates": [ -0.235657165, 5.565013329 ] } },
{ "type": "Feature", "properties": { "stop_id": "S1357", "stop_name": "Love Community", "stop_lat": 5.577140, "stop_lon": -0.233756, "sum_use": 1, "su_cnt": 1 }, "geometry": { "type": "Point", "coordinates": [ -0.233756006, 5.577139854 ] } },
{ "type": "Feature", "properties": { "stop_id": "S1358", "stop_name": "Orgle Road", "stop_lat": 5.583920, "stop_lon": -0.234008, "sum_use": 1, "su_cnt": 1 }, "geometry": { "type": "Point", "coordinates": [ -0.234008, 5.58392 ] } },
{ "type": "Feature", "properties": { "stop_id": "S1359", "stop_name": "Kelewele Junction", "stop_lat": 5.596500, "stop_lon": -0.245395, "sum_use": 1, "su_cnt": 1 }, "geometry": { "type": "Point", "coordinates": [ -0.245395, 5.5965 ] } },
{ "type": "Feature", "properties": { "stop_id": "S1363", "stop_name": "Abeka Primary", "stop_lat": 5.598360, "stop_lon": -0.247529, "sum_use": 2, "su_cnt": 1 }, "geometry": { "type": "Point", "coordinates": [ -0.247529, 5.59836 ] } },
{ "type": "Feature", "properties": { "stop_id": "S1364", "stop_name": "De Mod", "stop_lat": 5.589025, "stop_lon": -0.240802, "sum_use": 6, "su_cnt": 4 }, "geometry": { "type": "Point", "coordinates": [ -0.240802005, 5.589025021 ] } },
{ "type": "Feature", "properties": { "stop_id": "S1366", "stop_name": "Old Melcom 2", "stop_lat": 5.587927, "stop_lon": -0.226911, "sum_use": 6, "su_cnt": 4 }, "geometry": { "type": "Point", "coordinates": [ -0.226910666, 5.587926865 ] } },
{ "type": "Feature", "properties": { "stop_id": "S1368", "stop_name": "Kokomlemle Station", "stop_lat": 5.580340, "stop_lon": -0.220456, "sum_use": 2, "su_cnt": 1 }, "geometry": { "type": "Point", "coordinates": [ -0.220456, 5.58034 ] } },
{ "type": "Feature", "properties": { "stop_id": "S1369", "stop_name": "Michelin", "stop_lat": 5.579190, "stop_lon": -0.217000, "sum_use": 1, "su_cnt": 1 }, "geometry": { "type": "Point", "coordinates": [ -0.217, 5.57919 ] } },
{ "type": "Feature", "properties": { "stop_id": "S1370", "stop_name": "Vodafone Office 203", "stop_lat": 5.573007, "stop_lon": -0.216396, "sum_use": 21, "su_cnt": 6 }, "geometry": { "type": "Point", "coordinates": [ -0.216396332, 5.573006709 ] } },
{ "type": "Feature", "properties": { "stop_id": "S1377", "stop_name": "Ghana Mart", "stop_lat": 5.589560, "stop_lon": -0.228225, "sum_use": 1, "su_cnt": 1 }, "geometry": { "type": "Point", "coordinates": [ -0.228225, 5.58956 ] } },
{ "type": "Feature", "properties": { "stop_id": "S1379", "stop_name": "Kasadjan 1", "stop_lat": 5.585800, "stop_lon": -0.225481, "sum_use": 1, "su_cnt": 1 }, "geometry": { "type": "Point", "coordinates": [ -0.225481, 5.5858 ] } },
{ "type": "Feature", "properties": { "stop_id": "S1380", "stop_name": "Roadside 193", "stop_lat": 5.577230, "stop_lon": -0.221138, "sum_use": 2, "su_cnt": 1 }, "geometry": { "type": "Point", "coordinates": [ -0.221138, 5.57723 ] } },
{ "type": "Feature", "properties": { "stop_id": "S1381", "stop_name": "Railway", "stop_lat": 5.580050, "stop_lon": -0.219768, "sum_use": 2, "su_cnt": 1 }, "geometry": { "type": "Point", "coordinates": [ -0.219768, 5.58005 ] } },
{ "type": "Feature", "properties": { "stop_id": "S1386", "stop_name": "Road Side 196", "stop_lat": 5.579970, "stop_lon": -0.210309, "sum_use": 3, "su_cnt": 1 }, "geometry": { "type": "Point", "coordinates": [ -0.210309, 5.57997 ] } },
{ "type": "Feature", "properties": { "stop_id": "S1387", "stop_name": "Mallam Atta", "stop_lat": 5.581223, "stop_lon": -0.209368, "sum_use": 9, "su_cnt": 5 }, "geometry": { "type": "Point", "coordinates": [ -0.209367748, 5.581222534 ] } },
{ "type": "Feature", "properties": { "stop_id": "S1388", "stop_name": "Five Five", "stop_lat": 5.590110, "stop_lon": -0.207086, "sum_use": 2, "su_cnt": 2 }, "geometry": { "type": "Point", "coordinates": [ -0.207085505, 5.590110064 ] } },
{ "type": "Feature", "properties": { "stop_id": "S1389", "stop_name": "Adikansa Agya", "stop_lat": 5.591240, "stop_lon": -0.206246, "sum_use": 1, "su_cnt": 1 }, "geometry": { "type": "Point", "coordinates": [ -0.206246, 5.59124 ] } },
{ "type": "Feature", "properties": { "stop_id": "S1390", "stop_name": "Road Side 2 166", "stop_lat": 5.594700, "stop_lon": -0.207789, "sum_use": 3, "su_cnt": 1 }, "geometry": { "type": "Point", "coordinates": [ -0.207789, 5.5947 ] } },
{ "type": "Feature", "properties": { "stop_id": "S1394", "stop_name": "New Town 37 Station", "stop_lat": 5.587810, "stop_lon": -0.207573, "sum_use": 1, "su_cnt": 1 }, "geometry": { "type": "Point", "coordinates": [ -0.207572997, 5.58781004 ] } },
{ "type": "Feature", "properties": { "stop_id": "S1395", "stop_name": "Total 196", "stop_lat": 5.585690, "stop_lon": -0.207979, "sum_use": 1, "su_cnt": 1 }, "geometry": { "type": "Point", "coordinates": [ -0.207979, 5.58569 ] } },
{ "type": "Feature", "properties": { "stop_id": "S1396", "stop_name": "Mallam Atta", "stop_lat": 5.584090, "stop_lon": -0.208260, "sum_use": 1, "su_cnt": 1 }, "geometry": { "type": "Point", "coordinates": [ -0.20826, 5.584090233 ] } },
{ "type": "Feature", "properties": { "stop_id": "S1397", "stop_name": "Odor Rise 201", "stop_lat": 5.573790, "stop_lon": -0.214903, "sum_use": 10, "su_cnt": 2 }, "geometry": { "type": "Point", "coordinates": [ -0.214903, 5.57379 ] } },
{ "type": "Feature", "properties": { "stop_id": "S14", "stop_name": "Pokuase Junction", "stop_lat": 5.687701, "stop_lon": -0.281836, "sum_use": 40, "su_cnt": 12 }, "geometry": { "type": "Point", "coordinates": [ -0.28183613, 5.687701285 ] } },
{ "type": "Feature", "properties": { "stop_id": "S1407", "stop_name": "Roadside 201", "stop_lat": 5.575990, "stop_lon": -0.213217, "sum_use": 2, "su_cnt": 1 }, "geometry": { "type": "Point", "coordinates": [ -0.213217, 5.57599 ] } },
{ "type": "Feature", "properties": { "stop_id": "S1408", "stop_name": "Roadside 2 201", "stop_lat": 5.578800, "stop_lon": -0.211042, "sum_use": 2, "su_cnt": 1 }, "geometry": { "type": "Point", "coordinates": [ -0.211042, 5.5788 ] } },
{ "type": "Feature", "properties": { "stop_id": "S1413", "stop_name": "Nima Junction", "stop_lat": 5.579000, "stop_lon": -0.209079, "sum_use": 1, "su_cnt": 1 }, "geometry": { "type": "Point", "coordinates": [ -0.209078997, 5.579 ] } },
{ "type": "Feature", "properties": { "stop_id": "S142", "stop_name": "Mambo 263", "stop_lat": 5.601030, "stop_lon": -0.255634, "sum_use": 1, "su_cnt": 1 }, "geometry": { "type": "Point", "coordinates": [ -0.25563401, 5.601029873 ] } },
{ "type": "Feature", "properties": { "stop_id": "S143", "stop_name": "Five 067", "stop_lat": 5.610370, "stop_lon": -0.261262, "sum_use": 1, "su_cnt": 1 }, "geometry": { "type": "Point", "coordinates": [ -0.261262, 5.610370159 ] } },
{ "type": "Feature", "properties": { "stop_id": "S1431", "stop_name": "Prince of Peace", "stop_lat": 5.579810, "stop_lon": -0.233624, "sum_use": 1, "su_cnt": 2 }, "geometry": { "type": "Point", "coordinates": [ -0.233624, 5.57981 ] } },
{ "type": "Feature", "properties": { "stop_id": "S1439", "stop_name": "Ridge hospital", "stop_lat": 5.561220, "stop_lon": -0.199328, "sum_use": 2, "su_cnt": 2 }, "geometry": { "type": "Point", "coordinates": [ -0.199328, 5.56122 ] } },
{ "type": "Feature", "properties": { "stop_id": "S144", "stop_name": "Scorpion", "stop_lat": 5.616095, "stop_lon": -0.260890, "sum_use": 2, "su_cnt": 2 }, "geometry": { "type": "Point", "coordinates": [ -0.260890499, 5.616095066 ] } },
{ "type": "Feature", "properties": { "stop_id": "S1441", "stop_name": "State House", "stop_lat": 5.557150, "stop_lon": -0.194644, "sum_use": 1, "su_cnt": 1 }, "geometry": { "type": "Point", "coordinates": [ -0.194644, 5.55715 ] } },
{ "type": "Feature", "properties": { "stop_id": "S1448", "stop_name": "Champion", "stop_lat": 5.560290, "stop_lon": -0.209609, "sum_use": 1, "su_cnt": 1 }, "geometry": { "type": "Point", "coordinates": [ -0.209609, 5.56029 ] } },
{ "type": "Feature", "properties": { "stop_id": "S1449", "stop_name": "Fire Service 206", "stop_lat": 5.569040, "stop_lon": -0.184942, "sum_use": 2, "su_cnt": 2 }, "geometry": { "type": "Point", "coordinates": [ -0.184942499, 5.56904006 ] } },
{ "type": "Feature", "properties": { "stop_id": "S145", "stop_name": "Sakora Junction 067", "stop_lat": 5.619270, "stop_lon": -0.261898, "sum_use": 1, "su_cnt": 1 }, "geometry": { "type": "Point", "coordinates": [ -0.261898, 5.61927 ] } },
{ "type": "Feature", "properties": { "stop_id": "S1456", "stop_name": "Parliament", "stop_lat": 5.558380, "stop_lon": -0.194116, "sum_use": 1, "su_cnt": 1 }, "geometry": { "type": "Point", "coordinates": [ -0.194115996, 5.558380127 ] } },
{ "type": "Feature", "properties": { "stop_id": "S1457", "stop_name": "Barclays Club House", "stop_lat": 5.566610, "stop_lon": -0.189814, "sum_use": 1, "su_cnt": 1 }, "geometry": { "type": "Point", "coordinates": [ -0.189814, 5.56661 ] } },
{ "type": "Feature", "properties": { "stop_id": "S1458", "stop_name": "Police Headquarters", "stop_lat": 5.570470, "stop_lon": -0.187350, "sum_use": 2, "su_cnt": 1 }, "geometry": { "type": "Point", "coordinates": [ -0.18735, 5.57047 ] } },
{ "type": "Feature", "properties": { "stop_id": "S146", "stop_name": "Curve 067", "stop_lat": 5.626590, "stop_lon": -0.261829, "sum_use": 3, "su_cnt": 3 }, "geometry": { "type": "Point", "coordinates": [ -0.2618285, 5.62659 ] } },
{ "type": "Feature", "properties": { "stop_id": "S1463", "stop_name": "Parliament", "stop_lat": 5.555500, "stop_lon": -0.192823, "sum_use": 1, "su_cnt": 1 }, "geometry": { "type": "Point", "coordinates": [ -0.192822993, 5.555500031 ] } },
{ "type": "Feature", "properties": { "stop_id": "S1464", "stop_name": "Ridge Hosp. Taxi Rank", "stop_lat": 5.562495, "stop_lon": -0.200597, "sum_use": 3, "su_cnt": 2 }, "geometry": { "type": "Point", "coordinates": [ -0.200597003, 5.562494993 ] } },
{ "type": "Feature", "properties": { "stop_id": "S1465", "stop_name": "Trust Towers", "stop_lat": 5.563710, "stop_lon": -0.206164, "sum_use": 1, "su_cnt": 1 }, "geometry": { "type": "Point", "coordinates": [ -0.206164, 5.56371 ] } },
{ "type": "Feature", "properties": { "stop_id": "S1469", "stop_name": "Cathederal", "stop_lat": 5.563610, "stop_lon": -0.206259, "sum_use": 1, "su_cnt": 1 }, "geometry": { "type": "Point", "coordinates": [ -0.206259, 5.56361 ] } },
{ "type": "Feature", "properties": { "stop_id": "S1474", "stop_name": "Mr. Biggs", "stop_lat": 5.567570, "stop_lon": -0.213322, "sum_use": 2, "su_cnt": 1 }, "geometry": { "type": "Point", "coordinates": [ -0.213322, 5.56757 ] } },
{ "type": "Feature", "properties": { "stop_id": "S1478", "stop_name": "AICC", "stop_lat": 5.555360, "stop_lon": -0.192731, "sum_use": 1, "su_cnt": 1 }, "geometry": { "type": "Point", "coordinates": [ -0.192731, 5.55536 ] } },
{ "type": "Feature", "properties": { "stop_id": "S1479", "stop_name": "Kingdom Books", "stop_lat": 5.552850, "stop_lon": -0.189111, "sum_use": 2, "su_cnt": 1 }, "geometry": { "type": "Point", "coordinates": [ -0.189111, 5.55285 ] } },
{ "type": "Feature", "properties": { "stop_id": "S1483", "stop_name": "PTC 208", "stop_lat": 5.567120, "stop_lon": -0.213285, "sum_use": 1, "su_cnt": 1 }, "geometry": { "type": "Point", "coordinates": [ -0.213285, 5.56712 ] } },
{ "type": "Feature", "properties": { "stop_id": "S1487", "stop_name": "Total 209", "stop_lat": 5.576500, "stop_lon": -0.227973, "sum_use": 2, "su_cnt": 2 }, "geometry": { "type": "Point", "coordinates": [ -0.227972999, 5.576499939 ] } },
{ "type": "Feature", "properties": { "stop_id": "S1489", "stop_name": "St Theresa's", "stop_lat": 5.580500, "stop_lon": -0.229316, "sum_use": 1, "su_cnt": 1 }, "geometry": { "type": "Point", "coordinates": [ -0.229315996, 5.580500126 ] } },
{ "type": "Feature", "properties": { "stop_id": "S15", "stop_name": "Ofankor Barrier", "stop_lat": 5.657465, "stop_lon": -0.265435, "sum_use": 12, "su_cnt": 6 }, "geometry": { "type": "Point", "coordinates": [ -0.265434749, 5.6574651 ] } },
{ "type": "Feature", "properties": { "stop_id": "S150", "stop_name": "Tabora Junction", "stop_lat": 5.618040, "stop_lon": -0.261530, "sum_use": 4, "su_cnt": 1 }, "geometry": { "type": "Point", "coordinates": [ -0.26153, 5.61804 ] } },
{ "type": "Feature", "properties": { "stop_id": "S1509", "stop_name": "IPMC", "stop_lat": 5.571820, "stop_lon": -0.206973, "sum_use": 1, "su_cnt": 1 }, "geometry": { "type": "Point", "coordinates": [ -0.206973001, 5.571819782 ] } },
{ "type": "Feature", "properties": { "stop_id": "S151", "stop_name": "Darkuman Accra Station", "stop_lat": 5.590995, "stop_lon": -0.252222, "sum_use": 8, "su_cnt": 2 }, "geometry": { "type": "Point", "coordinates": [ -0.252222, 5.590995 ] } },
{ "type": "Feature", "properties": { "stop_id": "S1510", "stop_name": "Overhead 419", "stop_lat": 5.570410, "stop_lon": -0.213057, "sum_use": 1, "su_cnt": 1 }, "geometry": { "type": "Point", "coordinates": [ -0.213057, 5.57041 ] } },
{ "type": "Feature", "properties": { "stop_id": "S152", "stop_name": "Obetsebi Roundabout", "stop_lat": 5.562355, "stop_lon": -0.228567, "sum_use": 4, "su_cnt": 2 }, "geometry": { "type": "Point", "coordinates": [ -0.228566997, 5.562355042 ] } },
{ "type": "Feature", "properties": { "stop_id": "S1520", "stop_name": "Love Ridge", "stop_lat": 5.567830, "stop_lon": -0.200255, "sum_use": 2, "su_cnt": 1 }, "geometry": { "type": "Point", "coordinates": [ -0.200255, 5.56783 ] } },
{ "type": "Feature", "properties": { "stop_id": "S1527", "stop_name": "Cat", "stop_lat": 5.595293, "stop_lon": -0.221889, "sum_use": 3, "su_cnt": 3 }, "geometry": { "type": "Point", "coordinates": [ -0.221889, 5.595293333 ] } },
{ "type": "Feature", "properties": { "stop_id": "S153", "stop_name": "Cold Store 223", "stop_lat": 5.556795, "stop_lon": -0.221910, "sum_use": 12, "su_cnt": 3 }, "geometry": { "type": "Point", "coordinates": [ -0.22191, 5.556795 ] } },
{ "type": "Feature", "properties": { "stop_id": "S1530", "stop_name": "Abeka Market", "stop_lat": 5.600600, "stop_lon": -0.238944, "sum_use": 10, "su_cnt": 6 }, "geometry": { "type": "Point", "coordinates": [ -0.2389436, 5.6006 ] } },
{ "type": "Feature", "properties": { "stop_id": "S1531", "stop_name": "Fadama Junction", "stop_lat": 5.601640, "stop_lon": -0.240661, "sum_use": 1, "su_cnt": 1 }, "geometry": { "type": "Point", "coordinates": [ -0.240660995, 5.601640224 ] } },
{ "type": "Feature", "properties": { "stop_id": "S1535", "stop_name": "Abeka Market", "stop_lat": 5.600760, "stop_lon": -0.239160, "sum_use": 11, "su_cnt": 6 }, "geometry": { "type": "Point", "coordinates": [ -0.23916025, 5.60076 ] } },
{ "type": "Feature", "properties": { "stop_id": "S1537", "stop_name": "Streetlight", "stop_lat": 5.599820, "stop_lon": -0.237550, "sum_use": 4, "su_cnt": 2 }, "geometry": { "type": "Point", "coordinates": [ -0.23755, 5.59982 ] } },
{ "type": "Feature", "properties": { "stop_id": "S1539", "stop_name": "Junction 176", "stop_lat": 5.598360, "stop_lon": -0.230589, "sum_use": 1, "su_cnt": 1 }, "geometry": { "type": "Point", "coordinates": [ -0.230589002, 5.598360062 ] } },
{ "type": "Feature", "properties": { "stop_id": "S1542", "stop_name": "Filling Station 216", "stop_lat": 5.577810, "stop_lon": -0.216790, "sum_use": 1, "su_cnt": 1 }, "geometry": { "type": "Point", "coordinates": [ -0.21679, 5.57781 ] } },
{ "type": "Feature", "properties": { "stop_id": "S1546", "stop_name": "Caprice", "stop_lat": 5.582980, "stop_lon": -0.216674, "sum_use": 2, "su_cnt": 1 }, "geometry": { "type": "Point", "coordinates": [ -0.216674, 5.58298 ] } },
{ "type": "Feature", "properties": { "stop_id": "S1547", "stop_name": "Tesano Junction", "stop_lat": 5.598690, "stop_lon": -0.223588, "sum_use": 1, "su_cnt": 1 }, "geometry": { "type": "Point", "coordinates": [ -0.223588, 5.59869 ] } },
{ "type": "Feature", "properties": { "stop_id": "S1553", "stop_name": "Caprice", "stop_lat": 5.583950, "stop_lon": -0.217032, "sum_use": 7, "su_cnt": 2 }, "geometry": { "type": "Point", "coordinates": [ -0.217032, 5.58395 ] } },
{ "type": "Feature", "properties": { "stop_id": "S1560", "stop_name": "Flag Staff House", "stop_lat": 5.576250, "stop_lon": -0.187973, "sum_use": 2, "su_cnt": 2 }, "geometry": { "type": "Point", "coordinates": [ -0.187972993, 5.576250076 ] } },
{ "type": "Feature", "properties": { "stop_id": "S1562", "stop_name": "Water Works 221", "stop_lat": 5.583300, "stop_lon": -0.185023, "sum_use": 4, "su_cnt": 2 }, "geometry": { "type": "Point", "coordinates": [ -0.185023, 5.5833 ] } },
{ "type": "Feature", "properties": { "stop_id": "S1564", "stop_name": "37 Hospital", "stop_lat": 5.587730, "stop_lon": -0.182789, "sum_use": 2, "su_cnt": 2 }, "geometry": { "type": "Point", "coordinates": [ -0.182789, 5.58773 ] } },
{ "type": "Feature", "properties": { "stop_id": "S1566", "stop_name": "License Office", "stop_lat": 5.592200, "stop_lon": -0.180574, "sum_use": 2, "su_cnt": 2 }, "geometry": { "type": "Point", "coordinates": [ -0.180574, 5.5922 ] } },
{ "type": "Feature", "properties": { "stop_id": "S1568", "stop_name": "Airport First", "stop_lat": 5.606385, "stop_lon": -0.177399, "sum_use": 5, "su_cnt": 4 }, "geometry": { "type": "Point", "coordinates": [ -0.1773995, 5.606385 ] } },
{ "type": "Feature", "properties": { "stop_id": "S157", "stop_name": "Puplampu", "stop_lat": 5.637770, "stop_lon": -0.171356, "sum_use": 2, "su_cnt": 1 }, "geometry": { "type": "Point", "coordinates": [ -0.171355993, 5.637770176 ] } },
{ "type": "Feature", "properties": { "stop_id": "S1570", "stop_name": "Shiashie", "stop_lat": 5.628201, "stop_lon": -0.176514, "sum_use": 22, "su_cnt": 13 }, "geometry": { "type": "Point", "coordinates": [ -0.176513623, 5.628201306 ] } },
{ "type": "Feature", "properties": { "stop_id": "S1571", "stop_name": "Okponglo 221", "stop_lat": 5.637870, "stop_lon": -0.177464, "sum_use": 1, "su_cnt": 1 }, "geometry": { "type": "Point", "coordinates": [ -0.177463993, 5.637869835 ] } },
{ "type": "Feature", "properties": { "stop_id": "S1572", "stop_name": "Legon First", "stop_lat": 5.649230, "stop_lon": -0.179635, "sum_use": 1, "su_cnt": 1 }, "geometry": { "type": "Point", "coordinates": [ -0.179635003, 5.649230003 ] } },
{ "type": "Feature", "properties": { "stop_id": "S1573", "stop_name": "Atomic First", "stop_lat": 5.666505, "stop_lon": -0.177027, "sum_use": 11, "su_cnt": 6 }, "geometry": { "type": "Point", "coordinates": [ -0.177027333, 5.666505 ] } },
{ "type": "Feature", "properties": { "stop_id": "S1575", "stop_name": "Zongo Junction 422", "stop_lat": 5.676050, "stop_lon": -0.173605, "sum_use": 4, "su_cnt": 1 }, "geometry": { "type": "Point", "coordinates": [ -0.173604995, 5.676050186 ] } },
{ "type": "Feature", "properties": { "stop_id": "S1579", "stop_name": "Zongo Junction 422", "stop_lat": 5.678090, "stop_lon": -0.173287, "sum_use": 11, "su_cnt": 1 }, "geometry": { "type": "Point", "coordinates": [ -0.173287004, 5.678090096 ] } },
{ "type": "Feature", "properties": { "stop_id": "S158", "stop_name": "Bawaleshie 2nd", "stop_lat": 5.642110, "stop_lon": -0.164863, "sum_use": 2, "su_cnt": 2 }, "geometry": { "type": "Point", "coordinates": [ -0.164863, 5.64211 ] } },
{ "type": "Feature", "properties": { "stop_id": "S1580", "stop_name": "Firestone", "stop_lat": 5.670645, "stop_lon": -0.175824, "sum_use": 3, "su_cnt": 2 }, "geometry": { "type": "Point", "coordinates": [ -0.175824493, 5.670644999 ] } },
{ "type": "Feature", "properties": { "stop_id": "S1581", "stop_name": "Atomic First", "stop_lat": 5.668163, "stop_lon": -0.177077, "sum_use": 8, "su_cnt": 4 }, "geometry": { "type": "Point", "coordinates": [ -0.177076667, 5.668163333 ] } },
{ "type": "Feature", "properties": { "stop_id": "S1582", "stop_name": "Atomic Second", "stop_lat": 5.666510, "stop_lon": -0.177472, "sum_use": 4, "su_cnt": 2 }, "geometry": { "type": "Point", "coordinates": [ -0.177472, 5.66651 ] } },
{ "type": "Feature", "properties": { "stop_id": "S1583", "stop_name": "IPS Junction", "stop_lat": 5.659010, "stop_lon": -0.178968, "sum_use": 2, "su_cnt": 1 }, "geometry": { "type": "Point", "coordinates": [ -0.178968, 5.65901 ] } },
{ "type": "Feature", "properties": { "stop_id": "S1584", "stop_name": "Legon First", "stop_lat": 5.648475, "stop_lon": -0.179969, "sum_use": 4, "su_cnt": 2 }, "geometry": { "type": "Point", "coordinates": [ -0.179969497, 5.648474932 ] } },
{ "type": "Feature", "properties": { "stop_id": "S1585", "stop_name": "Okponglo 221", "stop_lat": 5.639838, "stop_lon": -0.178143, "sum_use": 8, "su_cnt": 6 }, "geometry": { "type": "Point", "coordinates": [ -0.1781432, 5.639837933 ] } },
{ "type": "Feature", "properties": { "stop_id": "S1586", "stop_name": "Spanner", "stop_lat": 5.620864, "stop_lon": -0.176369, "sum_use": 15, "su_cnt": 8 }, "geometry": { "type": "Point", "coordinates": [ -0.176369202, 5.62086401 ] } },
{ "type": "Feature", "properties": { "stop_id": "S1588", "stop_name": "37 Bus Stop", "stop_lat": 5.591247, "stop_lon": -0.180976, "sum_use": 25, "su_cnt": 6 }, "geometry": { "type": "Point", "coordinates": [ -0.1809755, 5.5912475 ] } },
{ "type": "Feature", "properties": { "stop_id": "S1589", "stop_name": "37 Hospital", "stop_lat": 5.587660, "stop_lon": -0.183011, "sum_use": 10, "su_cnt": 8 }, "geometry": { "type": "Point", "coordinates": [ -0.183011, 5.58766 ] } },
{ "type": "Feature", "properties": { "stop_id": "S1591", "stop_name": "Flag Staff House", "stop_lat": 5.576260, "stop_lon": -0.188174, "sum_use": 2, "su_cnt": 1 }, "geometry": { "type": "Point", "coordinates": [ -0.188173994, 5.57626009 ] } },
{ "type": "Feature", "properties": { "stop_id": "S1592", "stop_name": "GBC", "stop_lat": 5.573400, "stop_lon": -0.192669, "sum_use": 8, "su_cnt": 4 }, "geometry": { "type": "Point", "coordinates": [ -0.192669496, 5.573400021 ] } },
{ "type": "Feature", "properties": { "stop_id": "S1594", "stop_name": "Nima Police", "stop_lat": 5.573180, "stop_lon": -0.201092, "sum_use": 1, "su_cnt": 1 }, "geometry": { "type": "Point", "coordinates": [ -0.201092, 5.57318 ] } },
{ "type": "Feature", "properties": { "stop_id": "S1598", "stop_name": "Nima Gutter", "stop_lat": 5.588380, "stop_lon": -0.196560, "sum_use": null, "su_cnt": 1 }, "geometry": { "type": "Point", "coordinates": [ -0.196559995, 5.58837986 ] } },
{ "type": "Feature", "properties": { "stop_id": "S1599", "stop_name": "Maamobi (Kaneshie Station)", "stop_lat": 5.592090, "stop_lon": -0.195451, "sum_use": null, "su_cnt": 1 }, "geometry": { "type": "Point", "coordinates": [ -0.195451, 5.59209 ] } },
{ "type": "Feature", "properties": { "stop_id": "S160", "stop_name": "Baywa", "stop_lat": 5.642350, "stop_lon": -0.161912, "sum_use": 1, "su_cnt": 1 }, "geometry": { "type": "Point", "coordinates": [ -0.161912, 5.64235 ] } },
{ "type": "Feature", "properties": { "stop_id": "S1600", "stop_name": "Maamobi Market", "stop_lat": 5.593910, "stop_lon": -0.194881, "sum_use": 3, "su_cnt": 2 }, "geometry": { "type": "Point", "coordinates": [ -0.1948805, 5.593909979 ] } },
{ "type": "Feature", "properties": { "stop_id": "S1604", "stop_name": "Nima Gutter", "stop_lat": 5.588500, "stop_lon": -0.196555, "sum_use": 2, "su_cnt": 2 }, "geometry": { "type": "Point", "coordinates": [ -0.196555004, 5.588500023 ] } },
{ "type": "Feature", "properties": { "stop_id": "S1606", "stop_name": "Alaska", "stop_lat": 5.586348, "stop_lon": -0.197146, "sum_use": 8, "su_cnt": 7 }, "geometry": { "type": "Point", "coordinates": [ -0.197146, 5.586348 ] } },
{ "type": "Feature", "properties": { "stop_id": "S1608", "stop_name": "Nima Bola", "stop_lat": 5.583660, "stop_lon": -0.197862, "sum_use": 1, "su_cnt": 1 }, "geometry": { "type": "Point", "coordinates": [ -0.197862, 5.58366 ] } },
{ "type": "Feature", "properties": { "stop_id": "S1609", "stop_name": "Nima Overhead Station", "stop_lat": 5.581825, "stop_lon": -0.198438, "sum_use": 9, "su_cnt": 3 }, "geometry": { "type": "Point", "coordinates": [ -0.198438495, 5.581825018 ] } },
{ "type": "Feature", "properties": { "stop_id": "S161", "stop_name": "Selina", "stop_lat": 5.645270, "stop_lon": -0.156198, "sum_use": 1, "su_cnt": 1 }, "geometry": { "type": "Point", "coordinates": [ -0.156198, 5.64527 ] } },
{ "type": "Feature", "properties": { "stop_id": "S1611", "stop_name": "Nima Roundabout 274", "stop_lat": 5.578080, "stop_lon": -0.200730, "sum_use": 1, "su_cnt": 1 }, "geometry": { "type": "Point", "coordinates": [ -0.200729996, 5.578080177 ] } },
{ "type": "Feature", "properties": { "stop_id": "S1612", "stop_name": "Nima Police Station 996", "stop_lat": 5.573585, "stop_lon": -0.201511, "sum_use": 5, "su_cnt": 3 }, "geometry": { "type": "Point", "coordinates": [ -0.201511003, 5.573585033 ] } },
{ "type": "Feature", "properties": { "stop_id": "S1613", "stop_name": "Paloma", "stop_lat": 5.572046, "stop_lon": -0.205816, "sum_use": 11, "su_cnt": 7 }, "geometry": { "type": "Point", "coordinates": [ -0.205815801, 5.572046089 ] } },
{ "type": "Feature", "properties": { "stop_id": "S1615", "stop_name": "Equip", "stop_lat": 5.570975, "stop_lon": -0.210403, "sum_use": 5, "su_cnt": 2 }, "geometry": { "type": "Point", "coordinates": [ -0.210402504, 5.570975065 ] } },
{ "type": "Feature", "properties": { "stop_id": "S1619", "stop_name": "NIC", "stop_lat": 5.613950, "stop_lon": -0.296223, "sum_use": 2, "su_cnt": 2 }, "geometry": { "type": "Point", "coordinates": [ -0.296222508, 5.613950014 ] } },
{ "type": "Feature", "properties": { "stop_id": "S162", "stop_name": "American House", "stop_lat": 5.648090, "stop_lon": -0.150451, "sum_use": 7, "su_cnt": 3 }, "geometry": { "type": "Point", "coordinates": [ -0.1504515, 5.64809 ] } },
{ "type": "Feature", "properties": { "stop_id": "S1620", "stop_name": "Fan Milk Junction", "stop_lat": 5.621795, "stop_lon": -0.298582, "sum_use": 4, "su_cnt": 2 }, "geometry": { "type": "Point", "coordinates": [ -0.298582003, 5.621794939 ] } },
{ "type": "Feature", "properties": { "stop_id": "S1621", "stop_name": "Pentecost Junction", "stop_lat": 5.626380, "stop_lon": -0.307709, "sum_use": 2, "su_cnt": 1 }, "geometry": { "type": "Point", "coordinates": [ -0.307709, 5.62638 ] } },
{ "type": "Feature", "properties": { "stop_id": "S1622", "stop_name": "Ablekuma Junction", "stop_lat": 5.628260, "stop_lon": -0.312878, "sum_use": 3, "su_cnt": 1 }, "geometry": { "type": "Point", "coordinates": [ -0.312878, 5.62826 ] } },
{ "type": "Feature", "properties": { "stop_id": "S1623", "stop_name": "Ablekuma Park", "stop_lat": 5.629380, "stop_lon": -0.312421, "sum_use": 1, "su_cnt": 1 }, "geometry": { "type": "Point", "coordinates": [ -0.312421, 5.62938 ] } },
{ "type": "Feature", "properties": { "stop_id": "S1624", "stop_name": "Ablekuma Pharmacy", "stop_lat": 5.631800, "stop_lon": -0.313953, "sum_use": 1, "su_cnt": 1 }, "geometry": { "type": "Point", "coordinates": [ -0.313953, 5.6318 ] } },
{ "type": "Feature", "properties": { "stop_id": "S1625", "stop_name": "New Town 223", "stop_lat": 5.633440, "stop_lon": -0.315871, "sum_use": 2, "su_cnt": 1 }, "geometry": { "type": "Point", "coordinates": [ -0.315871, 5.633440018 ] } },
{ "type": "Feature", "properties": { "stop_id": "S1629", "stop_name": "Ablekuma Pharmacy", "stop_lat": 5.636680, "stop_lon": -0.319734, "sum_use": 1, "su_cnt": 1 }, "geometry": { "type": "Point", "coordinates": [ -0.319734, 5.63668 ] } },
{ "type": "Feature", "properties": { "stop_id": "S1630", "stop_name": "New Town 223", "stop_lat": 5.632320, "stop_lon": -0.314656, "sum_use": 4, "su_cnt": 2 }, "geometry": { "type": "Point", "coordinates": [ -0.314655989, 5.632319927 ] } },
{ "type": "Feature", "properties": { "stop_id": "S1632", "stop_name": "Awudome Roundabout", "stop_lat": 5.572965, "stop_lon": -0.230961, "sum_use": 3, "su_cnt": 2 }, "geometry": { "type": "Point", "coordinates": [ -0.230960503, 5.572964907 ] } },
{ "type": "Feature", "properties": { "stop_id": "S1633", "stop_name": "Cemetery Junction", "stop_lat": 5.565540, "stop_lon": -0.225344, "sum_use": 1, "su_cnt": 1 }, "geometry": { "type": "Point", "coordinates": [ -0.225344, 5.56554 ] } },
{ "type": "Feature", "properties": { "stop_id": "S1636", "stop_name": "Overhead 248", "stop_lat": 5.555400, "stop_lon": -0.219121, "sum_use": 1, "su_cnt": 1 }, "geometry": { "type": "Point", "coordinates": [ -0.219120994, 5.555399895 ] } },
{ "type": "Feature", "properties": { "stop_id": "S164", "stop_name": "American House 10th", "stop_lat": 5.645650, "stop_lon": -0.148685, "sum_use": 1, "su_cnt": 1 }, "geometry": { "type": "Point", "coordinates": [ -0.148685, 5.64565 ] } },
{ "type": "Feature", "properties": { "stop_id": "S1640", "stop_name": "Multimedia Group", "stop_lat": 5.577160, "stop_lon": -0.214512, "sum_use": 1, "su_cnt": 1 }, "geometry": { "type": "Point", "coordinates": [ -0.214512, 5.57716 ] } },
{ "type": "Feature", "properties": { "stop_id": "S1643", "stop_name": "Station 224", "stop_lat": 5.595300, "stop_lon": -0.216836, "sum_use": 1, "su_cnt": 1 }, "geometry": { "type": "Point", "coordinates": [ -0.216836, 5.5953 ] } },
{ "type": "Feature", "properties": { "stop_id": "S1647", "stop_name": "Market 156", "stop_lat": 5.562910, "stop_lon": -0.213809, "sum_use": 1, "su_cnt": 1 }, "geometry": { "type": "Point", "coordinates": [ -0.213808998, 5.56291008 ] } },
{ "type": "Feature", "properties": { "stop_id": "S1648", "stop_name": "Roxy", "stop_lat": 5.557910, "stop_lon": -0.212641, "sum_use": 3, "su_cnt": 1 }, "geometry": { "type": "Point", "coordinates": [ -0.212641001, 5.557909966 ] } },
{ "type": "Feature", "properties": { "stop_id": "S1649", "stop_name": "COCOBOD", "stop_lat": 5.551120, "stop_lon": -0.210821, "sum_use": 10, "su_cnt": 1 }, "geometry": { "type": "Point", "coordinates": [ -0.210821, 5.55112 ] } },
{ "type": "Feature", "properties": { "stop_id": "S165", "stop_name": "Bridge 256", "stop_lat": 5.645780, "stop_lon": -0.144603, "sum_use": 2, "su_cnt": 2 }, "geometry": { "type": "Point", "coordinates": [ -0.1446035, 5.64578 ] } },
{ "type": "Feature", "properties": { "stop_id": "S1655", "stop_name": "First Yellow Shop", "stop_lat": 5.626820, "stop_lon": -0.298089, "sum_use": 2, "su_cnt": 1 }, "geometry": { "type": "Point", "coordinates": [ -0.298089, 5.62682 ] } },
{ "type": "Feature", "properties": { "stop_id": "S1659", "stop_name": "Awoshie Last Stop", "stop_lat": 5.591565, "stop_lon": -0.287210, "sum_use": 10, "su_cnt": 2 }, "geometry": { "type": "Point", "coordinates": [ -0.2872095, 5.591565 ] } },
{ "type": "Feature", "properties": { "stop_id": "S166", "stop_name": "First Block Factory", "stop_lat": 5.645720, "stop_lon": -0.139154, "sum_use": null, "su_cnt": 1 }, "geometry": { "type": "Point", "coordinates": [ -0.139154, 5.64572 ] } },
{ "type": "Feature", "properties": { "stop_id": "S1660", "stop_name": "Banyard 2", "stop_lat": 5.582540, "stop_lon": -0.275519, "sum_use": 5, "su_cnt": 2 }, "geometry": { "type": "Point", "coordinates": [ -0.275519, 5.58254 ] } },
{ "type": "Feature", "properties": { "stop_id": "S1662", "stop_name": "Odorkor 1", "stop_lat": 5.579390, "stop_lon": -0.266474, "sum_use": 2, "su_cnt": 2 }, "geometry": { "type": "Point", "coordinates": [ -0.266474, 5.57939 ] } },
{ "type": "Feature", "properties": { "stop_id": "S1668", "stop_name": "Obetsebi Roundabout 1", "stop_lat": 5.560395, "stop_lon": -0.227680, "sum_use": 6, "su_cnt": 2 }, "geometry": { "type": "Point", "coordinates": [ -0.227679998, 5.560395002 ] } },
{ "type": "Feature", "properties": { "stop_id": "S167", "stop_name": "Station 1 070", "stop_lat": 5.646810, "stop_lon": -0.134475, "sum_use": 4, "su_cnt": 2 }, "geometry": { "type": "Point", "coordinates": [ -0.134475, 5.646810055 ] } },
{ "type": "Feature", "properties": { "stop_id": "S1672", "stop_name": "Borko Borko Junc.", "stop_lat": 5.628855, "stop_lon": -0.320111, "sum_use": 2, "su_cnt": 2 }, "geometry": { "type": "Point", "coordinates": [ -0.3201115, 5.628855 ] } },
{ "type": "Feature", "properties": { "stop_id": "S1673", "stop_name": "Block Factory 051", "stop_lat": 5.632315, "stop_lon": -0.324696, "sum_use": 5, "su_cnt": 4 }, "geometry": { "type": "Point", "coordinates": [ -0.324696, 5.632315 ] } },
{ "type": "Feature", "properties": { "stop_id": "S1675", "stop_name": "Paradise", "stop_lat": 5.635050, "stop_lon": -0.328203, "sum_use": 3, "su_cnt": 2 }, "geometry": { "type": "Point", "coordinates": [ -0.328202993, 5.63504982 ] } },
{ "type": "Feature", "properties": { "stop_id": "S1677", "stop_name": "Waakye", "stop_lat": 5.638945, "stop_lon": -0.332591, "sum_use": 3, "su_cnt": 2 }, "geometry": { "type": "Point", "coordinates": [ -0.332590505, 5.638944864 ] } },
{ "type": "Feature", "properties": { "stop_id": "S1678", "stop_name": "Oduman Junc.", "stop_lat": 5.640580, "stop_lon": -0.334630, "sum_use": 12, "su_cnt": 2 }, "geometry": { "type": "Point", "coordinates": [ -0.33463, 5.64058 ] } },
{ "type": "Feature", "properties": { "stop_id": "S1680", "stop_name": "Nuumotse", "stop_lat": 5.642050, "stop_lon": -0.338912, "sum_use": 7, "su_cnt": 2 }, "geometry": { "type": "Point", "coordinates": [ -0.33891201, 5.642049789 ] } },
{ "type": "Feature", "properties": { "stop_id": "S1682", "stop_name": "Mahean Junction", "stop_lat": 5.643445, "stop_lon": -0.344429, "sum_use": 19, "su_cnt": 3 }, "geometry": { "type": "Point", "coordinates": [ -0.344429493, 5.643445015 ] } },
{ "type": "Feature", "properties": { "stop_id": "S1687", "stop_name": "Mahean Junction", "stop_lat": 5.643350, "stop_lon": -0.344149, "sum_use": 2, "su_cnt": 1 }, "geometry": { "type": "Point", "coordinates": [ -0.344148993, 5.643350124 ] } },
{ "type": "Feature", "properties": { "stop_id": "S1688", "stop_name": "Nuumotse", "stop_lat": 5.642080, "stop_lon": -0.339029, "sum_use": 3, "su_cnt": 1 }, "geometry": { "type": "Point", "coordinates": [ -0.339029014, 5.64207983 ] } },
{ "type": "Feature", "properties": { "stop_id": "S1689", "stop_name": "Oduman", "stop_lat": 5.640440, "stop_lon": -0.334289, "sum_use": 7, "su_cnt": 1 }, "geometry": { "type": "Point", "coordinates": [ -0.334289, 5.64044 ] } },
{ "type": "Feature", "properties": { "stop_id": "S1690", "stop_name": "Waakye", "stop_lat": 5.638890, "stop_lon": -0.332541, "sum_use": 3, "su_cnt": 1 }, "geometry": { "type": "Point", "coordinates": [ -0.332540989, 5.63888979 ] } },
{ "type": "Feature", "properties": { "stop_id": "S1691", "stop_name": "Paradise", "stop_lat": 5.632990, "stop_lon": -0.325543, "sum_use": 7, "su_cnt": 2 }, "geometry": { "type": "Point", "coordinates": [ -0.325542986, 5.632989883 ] } },
{ "type": "Feature", "properties": { "stop_id": "S1693", "stop_name": "Curve 227", "stop_lat": 5.627350, "stop_lon": -0.312215, "sum_use": 3, "su_cnt": 2 }, "geometry": { "type": "Point", "coordinates": [ -0.312215, 5.62735 ] } },
{ "type": "Feature", "properties": { "stop_id": "S1695", "stop_name": "Agape", "stop_lat": 5.625255, "stop_lon": -0.306478, "sum_use": 11, "su_cnt": 3 }, "geometry": { "type": "Point", "coordinates": [ -0.3064775, 5.625255 ] } },
{ "type": "Feature", "properties": { "stop_id": "S1697", "stop_name": "Fan Milk Junction", "stop_lat": 5.621620, "stop_lon": -0.298803, "sum_use": 3, "su_cnt": 2 }, "geometry": { "type": "Point", "coordinates": [ -0.29880251, 5.621620178 ] } },
{ "type": "Feature", "properties": { "stop_id": "S1698", "stop_name": "Nsufa", "stop_lat": 5.617550, "stop_lon": -0.294488, "sum_use": 2, "su_cnt": 1 }, "geometry": { "type": "Point", "coordinates": [ -0.294488, 5.61755 ] } },
{ "type": "Feature", "properties": { "stop_id": "S1699", "stop_name": "NIC", "stop_lat": 5.614450, "stop_lon": -0.295964, "sum_use": 3, "su_cnt": 2 }, "geometry": { "type": "Point", "coordinates": [ -0.295964003, 5.614449978 ] } },
{ "type": "Feature", "properties": { "stop_id": "S17", "stop_name": "Tantra", "stop_lat": 5.640600, "stop_lon": -0.248839, "sum_use": 3, "su_cnt": 2 }, "geometry": { "type": "Point", "coordinates": [ -0.248839006, 5.640600204 ] } },
{ "type": "Feature", "properties": { "stop_id": "S1701", "stop_name": "School Junction 227", "stop_lat": 5.602910, "stop_lon": -0.293372, "sum_use": 2, "su_cnt": 2 }, "geometry": { "type": "Point", "coordinates": [ -0.293372, 5.60291 ] } },
{ "type": "Feature", "properties": { "stop_id": "S1703", "stop_name": "Market 005", "stop_lat": 5.599180, "stop_lon": -0.291147, "sum_use": 1, "su_cnt": 1 }, "geometry": { "type": "Point", "coordinates": [ -0.291146994, 5.599180222 ] } },
{ "type": "Feature", "properties": { "stop_id": "S1704", "stop_name": "Station 378", "stop_lat": 5.586950, "stop_lon": -0.279447, "sum_use": 1, "su_cnt": 1 }, "geometry": { "type": "Point", "coordinates": [ -0.279446989, 5.586949825 ] } },
{ "type": "Feature", "properties": { "stop_id": "S1705", "stop_name": "Odorkor Tipper", "stop_lat": 5.578250, "stop_lon": -0.270166, "sum_use": 8, "su_cnt": 5 }, "geometry": { "type": "Point", "coordinates": [ -0.270165749, 5.578249931 ] } },
{ "type": "Feature", "properties": { "stop_id": "S171", "stop_name": "First Block Factory", "stop_lat": 5.645773, "stop_lon": -0.139398, "sum_use": 9, "su_cnt": 3 }, "geometry": { "type": "Point", "coordinates": [ -0.139397667, 5.645773333 ] } },
{ "type": "Feature", "properties": { "stop_id": "S1710", "stop_name": "Kaneshie Societe Generale", "stop_lat": 5.564310, "stop_lon": -0.234334, "sum_use": 3, "su_cnt": 1 }, "geometry": { "type": "Point", "coordinates": [ -0.234334007, 5.564310074 ] } },
{ "type": "Feature", "properties": { "stop_id": "S1713", "stop_name": "MMT Station", "stop_lat": 5.567000, "stop_lon": -0.238729, "sum_use": 1, "su_cnt": 1 }, "geometry": { "type": "Point", "coordinates": [ -0.238729, 5.567 ] } },
{ "type": "Feature", "properties": { "stop_id": "S1716", "stop_name": "Atico", "stop_lat": 5.574050, "stop_lon": -0.250359, "sum_use": 2, "su_cnt": 1 }, "geometry": { "type": "Point", "coordinates": [ -0.250359, 5.57405 ] } },
{ "type": "Feature", "properties": { "stop_id": "S1717", "stop_name": "Darkuman Junction 302", "stop_lat": 5.577233, "stop_lon": -0.255541, "sum_use": 8, "su_cnt": 4 }, "geometry": { "type": "Point", "coordinates": [ -0.255541333, 5.577233333 ] } },
{ "type": "Feature", "properties": { "stop_id": "S172", "stop_name": "Roadside 070", "stop_lat": 5.645810, "stop_lon": -0.140532, "sum_use": 4, "su_cnt": 1 }, "geometry": { "type": "Point", "coordinates": [ -0.140532, 5.64581 ] } },
{ "type": "Feature", "properties": { "stop_id": "S1723", "stop_name": "Academy", "stop_lat": 5.570690, "stop_lon": -0.245412, "sum_use": 1, "su_cnt": 1 }, "geometry": { "type": "Point", "coordinates": [ -0.245412, 5.57069 ] } },
{ "type": "Feature", "properties": { "stop_id": "S1726", "stop_name": "Pamprom 2", "stop_lat": 5.562600, "stop_lon": -0.231636, "sum_use": 5, "su_cnt": 2 }, "geometry": { "type": "Point", "coordinates": [ -0.231636, 5.5626 ] } },
{ "type": "Feature", "properties": { "stop_id": "S1728", "stop_name": "Kingsway", "stop_lat": 5.552065, "stop_lon": -0.210975, "sum_use": 14, "su_cnt": 2 }, "geometry": { "type": "Point", "coordinates": [ -0.210975006, 5.552064896 ] } },
{ "type": "Feature", "properties": { "stop_id": "S173", "stop_name": "American House", "stop_lat": 5.648325, "stop_lon": -0.150698, "sum_use": 15, "su_cnt": 3 }, "geometry": { "type": "Point", "coordinates": [ -0.150698, 5.648325 ] } },
{ "type": "Feature", "properties": { "stop_id": "S1732", "stop_name": "Family and Friends", "stop_lat": 5.600645, "stop_lon": -0.273319, "sum_use": 6, "su_cnt": 4 }, "geometry": { "type": "Point", "coordinates": [ -0.273318507, 5.600645065 ] } },
{ "type": "Feature", "properties": { "stop_id": "S1734", "stop_name": "Chop Bar 999", "stop_lat": 5.616855, "stop_lon": -0.276218, "sum_use": 8, "su_cnt": 5 }, "geometry": { "type": "Point", "coordinates": [ -0.2762185, 5.616855 ] } },
{ "type": "Feature", "properties": { "stop_id": "S1736", "stop_name": "Sowutuom", "stop_lat": 5.624890, "stop_lon": -0.283482, "sum_use": 1, "su_cnt": 1 }, "geometry": { "type": "Point", "coordinates": [ -0.283481985, 5.624889851 ] } },
{ "type": "Feature", "properties": { "stop_id": "S1737", "stop_name": "Heaven Church", "stop_lat": 5.627930, "stop_lon": -0.285873, "sum_use": 1, "su_cnt": 1 }, "geometry": { "type": "Point", "coordinates": [ -0.285872996, 5.627930164 ] } },
{ "type": "Feature", "properties": { "stop_id": "S1738", "stop_name": "Mambo 230", "stop_lat": 5.631010, "stop_lon": -0.285228, "sum_use": 1, "su_cnt": 1 }, "geometry": { "type": "Point", "coordinates": [ -0.285228, 5.63101 ] } },
{ "type": "Feature", "properties": { "stop_id": "S1739", "stop_name": "Mensah Addo", "stop_lat": 5.633930, "stop_lon": -0.286831, "sum_use": 2, "su_cnt": 1 }, "geometry": { "type": "Point", "coordinates": [ -0.286830992, 5.633930206 ] } },
{ "type": "Feature", "properties": { "stop_id": "S1740", "stop_name": "Junction 230", "stop_lat": 5.635980, "stop_lon": -0.290579, "sum_use": 2, "su_cnt": 1 }, "geometry": { "type": "Point", "coordinates": [ -0.290579, 5.63598 ] } },
{ "type": "Feature", "properties": { "stop_id": "S1741", "stop_name": "Transformer 230", "stop_lat": 5.635780, "stop_lon": -0.292417, "sum_use": 1, "su_cnt": 1 }, "geometry": { "type": "Point", "coordinates": [ -0.292417, 5.63578 ] } },
{ "type": "Feature", "properties": { "stop_id": "S1745", "stop_name": "Ice Water Junction", "stop_lat": 5.632170, "stop_lon": -0.298110, "sum_use": 2, "su_cnt": 1 }, "geometry": { "type": "Point", "coordinates": [ -0.29811, 5.63217 ] } },
{ "type": "Feature", "properties": { "stop_id": "S1747", "stop_name": "Odorgonno", "stop_lat": 5.589795, "stop_lon": -0.284324, "sum_use": 5, "su_cnt": 2 }, "geometry": { "type": "Point", "coordinates": [ -0.284324497, 5.589795113 ] } },
{ "type": "Feature", "properties": { "stop_id": "S1748", "stop_name": "Glory Land", "stop_lat": 5.578240, "stop_lon": -0.257660, "sum_use": 1, "su_cnt": 1 }, "geometry": { "type": "Point", "coordinates": [ -0.25766, 5.57824 ] } },
{ "type": "Feature", "properties": { "stop_id": "S1749", "stop_name": "Academy", "stop_lat": 5.570310, "stop_lon": -0.244235, "sum_use": 1, "su_cnt": 1 }, "geometry": { "type": "Point", "coordinates": [ -0.244235, 5.57031 ] } },
{ "type": "Feature", "properties": { "stop_id": "S175", "stop_name": "Acheampong", "stop_lat": 5.643043, "stop_lon": -0.159744, "sum_use": 5, "su_cnt": 5 }, "geometry": { "type": "Point", "coordinates": [ -0.159744333, 5.643043333 ] } },
{ "type": "Feature", "properties": { "stop_id": "S1754", "stop_name": "Mallam Market", "stop_lat": 5.573624, "stop_lon": -0.279290, "sum_use": 27, "su_cnt": 10 }, "geometry": { "type": "Point", "coordinates": [ -0.279290284, 5.573624134 ] } },
{ "type": "Feature", "properties": { "stop_id": "S1755", "stop_name": "Weija Junction 1", "stop_lat": 5.556550, "stop_lon": -0.303540, "sum_use": 6, "su_cnt": 2 }, "geometry": { "type": "Point", "coordinates": [ -0.30354, 5.55655 ] } },
{ "type": "Feature", "properties": { "stop_id": "S1757", "stop_name": "Filling Station 231", "stop_lat": 5.562450, "stop_lon": -0.316141, "sum_use": 1, "su_cnt": 1 }, "geometry": { "type": "Point", "coordinates": [ -0.316141, 5.56245 ] } },
{ "type": "Feature", "properties": { "stop_id": "S1758", "stop_name": "Royals", "stop_lat": 5.563030, "stop_lon": -0.316952, "sum_use": 1, "su_cnt": 1 }, "geometry": { "type": "Point", "coordinates": [ -0.316952, 5.56303 ] } },
{ "type": "Feature", "properties": { "stop_id": "S1759", "stop_name": "New Town 231", "stop_lat": 5.568500, "stop_lon": -0.328008, "sum_use": 1, "su_cnt": 1 }, "geometry": { "type": "Point", "coordinates": [ -0.328008, 5.5685 ] } },
{ "type": "Feature", "properties": { "stop_id": "S1760", "stop_name": "Weija School Junction", "stop_lat": 5.570380, "stop_lon": -0.331259, "sum_use": 5, "su_cnt": 1 }, "geometry": { "type": "Point", "coordinates": [ -0.331259, 5.57038 ] } },
{ "type": "Feature", "properties": { "stop_id": "S1761", "stop_name": "Zongo", "stop_lat": 5.571060, "stop_lon": -0.333566, "sum_use": 1, "su_cnt": 1 }, "geometry": { "type": "Point", "coordinates": [ -0.33356601, 5.571060181 ] } },
{ "type": "Feature", "properties": { "stop_id": "S1762", "stop_name": "Market 231", "stop_lat": 5.570930, "stop_lon": -0.334776, "sum_use": 3, "su_cnt": 1 }, "geometry": { "type": "Point", "coordinates": [ -0.334776, 5.57093 ] } },
{ "type": "Feature", "properties": { "stop_id": "S1764", "stop_name": "Kawokudi 231", "stop_lat": 5.591300, "stop_lon": -0.190276, "sum_use": 1, "su_cnt": 1 }, "geometry": { "type": "Point", "coordinates": [ -0.190276, 5.5913 ] } },
{ "type": "Feature", "properties": { "stop_id": "S1767", "stop_name": "Zongo", "stop_lat": 5.569570, "stop_lon": -0.330553, "sum_use": 2, "su_cnt": 1 }, "geometry": { "type": "Point", "coordinates": [ -0.330552995, 5.569570065 ] } },
{ "type": "Feature", "properties": { "stop_id": "S1768", "stop_name": "Mallam Junction 1", "stop_lat": 5.569220, "stop_lon": -0.286072, "sum_use": 11, "su_cnt": 4 }, "geometry": { "type": "Point", "coordinates": [ -0.286072344, 5.569219907 ] } },
{ "type": "Feature", "properties": { "stop_id": "S1769", "stop_name": "Mallam Market", "stop_lat": 5.573645, "stop_lon": -0.278940, "sum_use": 11, "su_cnt": 7 }, "geometry": { "type": "Point", "coordinates": [ -0.278939754, 5.573644996 ] } },
{ "type": "Feature", "properties": { "stop_id": "S177", "stop_name": "Roadside 2 070", "stop_lat": 5.642420, "stop_lon": -0.162170, "sum_use": 4, "su_cnt": 2 }, "geometry": { "type": "Point", "coordinates": [ -0.16217, 5.64242 ] } },
{ "type": "Feature", "properties": { "stop_id": "S1772", "stop_name": "Odorkor 2", "stop_lat": 5.579997, "stop_lon": -0.263931, "sum_use": 8, "su_cnt": 6 }, "geometry": { "type": "Point", "coordinates": [ -0.263931498, 5.57999742 ] } },
{ "type": "Feature", "properties": { "stop_id": "S1775", "stop_name": "Station 231", "stop_lat": 5.570040, "stop_lon": -0.244180, "sum_use": 1, "su_cnt": 1 }, "geometry": { "type": "Point", "coordinates": [ -0.24418, 5.57004 ] } },
{ "type": "Feature", "properties": { "stop_id": "S1776", "stop_name": "First Light 2", "stop_lat": 5.569280, "stop_lon": -0.242896, "sum_use": 2, "su_cnt": 1 }, "geometry": { "type": "Point", "coordinates": [ -0.242896, 5.56928 ] } },
{ "type": "Feature", "properties": { "stop_id": "S1777", "stop_name": "Graphic", "stop_lat": 5.555360, "stop_lon": -0.218708, "sum_use": 3, "su_cnt": 2 }, "geometry": { "type": "Point", "coordinates": [ -0.218707502, 5.555360079 ] } },
{ "type": "Feature", "properties": { "stop_id": "S1778", "stop_name": "Curve 177", "stop_lat": 5.552170, "stop_lon": -0.214895, "sum_use": 1, "su_cnt": 1 }, "geometry": { "type": "Point", "coordinates": [ -0.214895, 5.55217 ] } },
{ "type": "Feature", "properties": { "stop_id": "S1787", "stop_name": "School Junction 232", "stop_lat": 5.561840, "stop_lon": -0.207991, "sum_use": 1, "su_cnt": 1 }, "geometry": { "type": "Point", "coordinates": [ -0.207991, 5.56184 ] } },
{ "type": "Feature", "properties": { "stop_id": "S1788", "stop_name": "Adabraka Market", "stop_lat": 5.560670, "stop_lon": -0.211835, "sum_use": 1, "su_cnt": 1 }, "geometry": { "type": "Point", "coordinates": [ -0.211835, 5.56067 ] } },
{ "type": "Feature", "properties": { "stop_id": "S179", "stop_name": "Super Market 071", "stop_lat": 5.638725, "stop_lon": -0.170787, "sum_use": 3, "su_cnt": 3 }, "geometry": { "type": "Point", "coordinates": [ -0.1707865, 5.638725042 ] } },
{ "type": "Feature", "properties": { "stop_id": "S1792", "stop_name": "Ave Maria", "stop_lat": 5.564665, "stop_lon": -0.267960, "sum_use": 7, "su_cnt": 4 }, "geometry": { "type": "Point", "coordinates": [ -0.2679605, 5.564665 ] } },
{ "type": "Feature", "properties": { "stop_id": "S1793", "stop_name": "Sakaman", "stop_lat": 5.574740, "stop_lon": -0.274002, "sum_use": 2, "su_cnt": 1 }, "geometry": { "type": "Point", "coordinates": [ -0.274001986, 5.574739933 ] } },
{ "type": "Feature", "properties": { "stop_id": "S1795", "stop_name": "Abrantie", "stop_lat": 5.605050, "stop_lon": -0.252197, "sum_use": 5, "su_cnt": 1 }, "geometry": { "type": "Point", "coordinates": [ -0.252197, 5.60505 ] } },
{ "type": "Feature", "properties": { "stop_id": "S1796", "stop_name": "Lapaz (after traffic light)", "stop_lat": 5.607320, "stop_lon": -0.246967, "sum_use": 7, "su_cnt": 1 }, "geometry": { "type": "Point", "coordinates": [ -0.246967, 5.60732 ] } },
{ "type": "Feature", "properties": { "stop_id": "S1797", "stop_name": "Suzy", "stop_lat": 5.610840, "stop_lon": -0.232551, "sum_use": 1, "su_cnt": 1 }, "geometry": { "type": "Point", "coordinates": [ -0.232551, 5.61084 ] } },
{ "type": "Feature", "properties": { "stop_id": "S1798", "stop_name": "Achimota Old Station", "stop_lat": 5.616520, "stop_lon": -0.229473, "sum_use": 3, "su_cnt": 2 }, "geometry": { "type": "Point", "coordinates": [ -0.2294735, 5.61652 ] } },
{ "type": "Feature", "properties": { "stop_id": "S180", "stop_name": "Puplampu 241", "stop_lat": 5.632410, "stop_lon": -0.172893, "sum_use": 4, "su_cnt": 1 }, "geometry": { "type": "Point", "coordinates": [ -0.172893, 5.63241 ] } },
{ "type": "Feature", "properties": { "stop_id": "S1802", "stop_name": "Achimota New Overhead", "stop_lat": 5.619760, "stop_lon": -0.230711, "sum_use": 4, "su_cnt": 1 }, "geometry": { "type": "Point", "coordinates": [ -0.230711, 5.61976 ] } },
{ "type": "Feature", "properties": { "stop_id": "S1803", "stop_name": "Lapaz Market", "stop_lat": 5.606630, "stop_lon": -0.249528, "sum_use": 2, "su_cnt": 1 }, "geometry": { "type": "Point", "coordinates": [ -0.249528, 5.60663 ] } },
{ "type": "Feature", "properties": { "stop_id": "S1804", "stop_name": "Hong Kong 017", "stop_lat": 5.602960, "stop_lon": -0.258416, "sum_use": 1, "su_cnt": 1 }, "geometry": { "type": "Point", "coordinates": [ -0.258416, 5.60296 ] } },
{ "type": "Feature", "properties": { "stop_id": "S1806", "stop_name": "Sakaman", "stop_lat": 5.575453, "stop_lon": -0.274339, "sum_use": 5, "su_cnt": 3 }, "geometry": { "type": "Point", "coordinates": [ -0.274339, 5.57545344 ] } },
{ "type": "Feature", "properties": { "stop_id": "S1807", "stop_name": "Thirteenth", "stop_lat": 5.567600, "stop_lon": -0.270258, "sum_use": 2, "su_cnt": 2 }, "geometry": { "type": "Point", "coordinates": [ -0.270258486, 5.567600012 ] } },
{ "type": "Feature", "properties": { "stop_id": "S1808", "stop_name": "Ave Maria", "stop_lat": 5.564830, "stop_lon": -0.268245, "sum_use": 13, "su_cnt": 5 }, "geometry": { "type": "Point", "coordinates": [ -0.268244667, 5.56483 ] } },
{ "type": "Feature", "properties": { "stop_id": "S181", "stop_name": "Camara 070", "stop_lat": 5.630085, "stop_lon": -0.173447, "sum_use": 3, "su_cnt": 3 }, "geometry": { "type": "Point", "coordinates": [ -0.173447, 5.630085 ] } },
{ "type": "Feature", "properties": { "stop_id": "S1810", "stop_name": "Capital O2", "stop_lat": 5.559690, "stop_lon": -0.265179, "sum_use": 4, "su_cnt": 1 }, "geometry": { "type": "Point", "coordinates": [ -0.265179008, 5.559689999 ] } },
{ "type": "Feature", "properties": { "stop_id": "S1811", "stop_name": "Roundabout 240", "stop_lat": 5.557428, "stop_lon": -0.264858, "sum_use": 20, "su_cnt": 13 }, "geometry": { "type": "Point", "coordinates": [ -0.264857858, 5.557428496 ] } },
{ "type": "Feature", "properties": { "stop_id": "S1813", "stop_name": "Sahara 2", "stop_lat": 5.549753, "stop_lon": -0.264624, "sum_use": 22, "su_cnt": 12 }, "geometry": { "type": "Point", "coordinates": [ -0.264624004, 5.54975278 ] } },
{ "type": "Feature", "properties": { "stop_id": "S1815", "stop_name": "Control", "stop_lat": 5.546486, "stop_lon": -0.264636, "sum_use": 16, "su_cnt": 10 }, "geometry": { "type": "Point", "coordinates": [ -0.264636286, 5.546485714 ] } },
{ "type": "Feature", "properties": { "stop_id": "S1816", "stop_name": "Police Station 235", "stop_lat": 5.544210, "stop_lon": -0.264591, "sum_use": 8, "su_cnt": 5 }, "geometry": { "type": "Point", "coordinates": [ -0.264590998, 5.544209957 ] } },
{ "type": "Feature", "properties": { "stop_id": "S1818", "stop_name": "Market 1", "stop_lat": 5.541703, "stop_lon": -0.264706, "sum_use": 32, "su_cnt": 15 }, "geometry": { "type": "Point", "coordinates": [ -0.26470578, 5.541703383 ] } },
{ "type": "Feature", "properties": { "stop_id": "S1820", "stop_name": "Exhibition", "stop_lat": 5.538067, "stop_lon": -0.264892, "sum_use": 6, "su_cnt": 4 }, "geometry": { "type": "Point", "coordinates": [ -0.264891751, 5.53806746 ] } },
{ "type": "Feature", "properties": { "stop_id": "S1830", "stop_name": "Total 447", "stop_lat": 5.535630, "stop_lon": -0.228888, "sum_use": 5, "su_cnt": 2 }, "geometry": { "type": "Point", "coordinates": [ -0.228888497, 5.535629988 ] } },
{ "type": "Feature", "properties": { "stop_id": "S1836", "stop_name": "Timber Market", "stop_lat": 5.544420, "stop_lon": -0.216615, "sum_use": 1, "su_cnt": 1 }, "geometry": { "type": "Point", "coordinates": [ -0.216615006, 5.544419765 ] } },
{ "type": "Feature", "properties": { "stop_id": "S1839", "stop_name": "Korle Bu Total", "stop_lat": 5.535580, "stop_lon": -0.229031, "sum_use": 3, "su_cnt": 1 }, "geometry": { "type": "Point", "coordinates": [ -0.229031, 5.53558 ] } },
{ "type": "Feature", "properties": { "stop_id": "S1841", "stop_name": "Mamprobi Methodist", "stop_lat": 5.535040, "stop_lon": -0.243748, "sum_use": 3, "su_cnt": 2 }, "geometry": { "type": "Point", "coordinates": [ -0.243748, 5.53504 ] } },
{ "type": "Feature", "properties": { "stop_id": "S1845", "stop_name": "IBE", "stop_lat": 5.538885, "stop_lon": -0.248294, "sum_use": 5, "su_cnt": 2 }, "geometry": { "type": "Point", "coordinates": [ -0.248294495, 5.538884878 ] } },
{ "type": "Feature", "properties": { "stop_id": "S1846", "stop_name": "Mr Mensah", "stop_lat": 5.539360, "stop_lon": -0.259378, "sum_use": 2, "su_cnt": 1 }, "geometry": { "type": "Point", "coordinates": [ -0.259378, 5.53936 ] } },
{ "type": "Feature", "properties": { "stop_id": "S1847", "stop_name": "Datus 236", "stop_lat": 5.538950, "stop_lon": -0.261385, "sum_use": 3, "su_cnt": 2 }, "geometry": { "type": "Point", "coordinates": [ -0.261385, 5.53895 ] } },
{ "type": "Feature", "properties": { "stop_id": "S1854", "stop_name": "Bridge (Camara)", "stop_lat": 5.536800, "stop_lon": -0.255804, "sum_use": 1, "su_cnt": 1 }, "geometry": { "type": "Point", "coordinates": [ -0.255804, 5.5368 ] } },
{ "type": "Feature", "properties": { "stop_id": "S1855", "stop_name": "Mascot", "stop_lat": 5.537850, "stop_lon": -0.259932, "sum_use": 2, "su_cnt": 2 }, "geometry": { "type": "Point", "coordinates": [ -0.259932, 5.53785 ] } },
{ "type": "Feature", "properties": { "stop_id": "S1857", "stop_name": "Exhibition Roundabout", "stop_lat": 5.537410, "stop_lon": -0.262103, "sum_use": 2, "su_cnt": 1 }, "geometry": { "type": "Point", "coordinates": [ -0.262102991, 5.537409782 ] } },
{ "type": "Feature", "properties": { "stop_id": "S1858", "stop_name": "Exhibition Roundabout", "stop_lat": 5.537430, "stop_lon": -0.264711, "sum_use": 0, "su_cnt": 1 }, "geometry": { "type": "Point", "coordinates": [ -0.264710993, 5.53742981 ] } },
{ "type": "Feature", "properties": { "stop_id": "S1859", "stop_name": "Market 1", "stop_lat": 5.541300, "stop_lon": -0.264627, "sum_use": 3, "su_cnt": 2 }, "geometry": { "type": "Point", "coordinates": [ -0.264627, 5.5413 ] } },
{ "type": "Feature", "properties": { "stop_id": "S1863", "stop_name": "Sahara", "stop_lat": 5.550660, "stop_lon": -0.264483, "sum_use": 4, "su_cnt": 3 }, "geometry": { "type": "Point", "coordinates": [ -0.26448299, 5.550660133 ] } },
{ "type": "Feature", "properties": { "stop_id": "S1865", "stop_name": "Mama's Inn", "stop_lat": 5.554390, "stop_lon": -0.264469, "sum_use": 3, "su_cnt": 2 }, "geometry": { "type": "Point", "coordinates": [ -0.264468998, 5.554389954 ] } },
{ "type": "Feature", "properties": { "stop_id": "S1867", "stop_name": "Roundabout 240", "stop_lat": 5.556810, "stop_lon": -0.264657, "sum_use": 2, "su_cnt": 2 }, "geometry": { "type": "Point", "coordinates": [ -0.264657, 5.55681 ] } },
{ "type": "Feature", "properties": { "stop_id": "S1869", "stop_name": "Capital O2", "stop_lat": 5.559720, "stop_lon": -0.265012, "sum_use": 2, "su_cnt": 2 }, "geometry": { "type": "Point", "coordinates": [ -0.2650125, 5.55972 ] } },
{ "type": "Feature", "properties": { "stop_id": "S187", "stop_name": "Acheampong", "stop_lat": 5.642810, "stop_lon": -0.160189, "sum_use": 4, "su_cnt": 3 }, "geometry": { "type": "Point", "coordinates": [ -0.160189, 5.64281 ] } },
{ "type": "Feature", "properties": { "stop_id": "S1870", "stop_name": "Washing Bay 236", "stop_lat": 5.560520, "stop_lon": -0.266064, "sum_use": 4, "su_cnt": 2 }, "geometry": { "type": "Point", "coordinates": [ -0.266064, 5.56052 ] } },
{ "type": "Feature", "properties": { "stop_id": "S1872", "stop_name": "Mt. Olivet", "stop_lat": 5.560590, "stop_lon": -0.267469, "sum_use": 1, "su_cnt": 1 }, "geometry": { "type": "Point", "coordinates": [ -0.267469, 5.56059 ] } },
{ "type": "Feature", "properties": { "stop_id": "S1873", "stop_name": "Abam Kofi", "stop_lat": 5.561900, "stop_lon": -0.270678, "sum_use": 3, "su_cnt": 1 }, "geometry": { "type": "Point", "coordinates": [ -0.270678, 5.5619 ] } },
{ "type": "Feature", "properties": { "stop_id": "S1877", "stop_name": "Police Station 235", "stop_lat": 5.543747, "stop_lon": -0.264573, "sum_use": 11, "su_cnt": 7 }, "geometry": { "type": "Point", "coordinates": [ -0.264573336, 5.54374671 ] } },
{ "type": "Feature", "properties": { "stop_id": "S1878", "stop_name": "Control", "stop_lat": 5.546048, "stop_lon": -0.264549, "sum_use": 12, "su_cnt": 10 }, "geometry": { "type": "Point", "coordinates": [ -0.264548833, 5.546048333 ] } },
{ "type": "Feature", "properties": { "stop_id": "S1880", "stop_name": "Sahara", "stop_lat": 5.550347, "stop_lon": -0.264614, "sum_use": 18, "su_cnt": 9 }, "geometry": { "type": "Point", "coordinates": [ -0.264614429, 5.550347192 ] } },
{ "type": "Feature", "properties": { "stop_id": "S1881", "stop_name": "Maa Mercy", "stop_lat": 5.554500, "stop_lon": -0.264534, "sum_use": 2, "su_cnt": 2 }, "geometry": { "type": "Point", "coordinates": [ -0.264533997, 5.554500103 ] } },
{ "type": "Feature", "properties": { "stop_id": "S1883", "stop_name": "Capital O2", "stop_lat": 5.559513, "stop_lon": -0.265181, "sum_use": 8, "su_cnt": 5 }, "geometry": { "type": "Point", "coordinates": [ -0.265180995, 5.55951341 ] } },
{ "type": "Feature", "properties": { "stop_id": "S1885", "stop_name": "Water Works 237", "stop_lat": 5.565720, "stop_lon": -0.268966, "sum_use": 2, "su_cnt": 1 }, "geometry": { "type": "Point", "coordinates": [ -0.268966, 5.56572 ] } },
{ "type": "Feature", "properties": { "stop_id": "S1886", "stop_name": "Chinese", "stop_lat": 5.566620, "stop_lon": -0.269779, "sum_use": 1, "su_cnt": 1 }, "geometry": { "type": "Point", "coordinates": [ -0.269779, 5.56662 ] } },
{ "type": "Feature", "properties": { "stop_id": "S1887", "stop_name": "Blue Lagoon", "stop_lat": 5.571700, "stop_lon": -0.272454, "sum_use": 2, "su_cnt": 2 }, "geometry": { "type": "Point", "coordinates": [ -0.2724535, 5.5717 ] } },
{ "type": "Feature", "properties": { "stop_id": "S1890", "stop_name": "Mangoase 402", "stop_lat": 5.585995, "stop_lon": -0.277009, "sum_use": 2, "su_cnt": 2 }, "geometry": { "type": "Point", "coordinates": [ -0.277008504, 5.585994959 ] } },
{ "type": "Feature", "properties": { "stop_id": "S1891", "stop_name": "Station 378", "stop_lat": 5.587224, "stop_lon": -0.279084, "sum_use": 4, "su_cnt": 3 }, "geometry": { "type": "Point", "coordinates": [ -0.279084335, 5.58722353 ] } },
{ "type": "Feature", "properties": { "stop_id": "S1892", "stop_name": "Odorgonno", "stop_lat": 5.590230, "stop_lon": -0.284215, "sum_use": 5, "su_cnt": 4 }, "geometry": { "type": "Point", "coordinates": [ -0.284215003, 5.590229988 ] } },
{ "type": "Feature", "properties": { "stop_id": "S1894", "stop_name": "Anyaa", "stop_lat": 5.597200, "stop_lon": -0.290012, "sum_use": 1, "su_cnt": 1 }, "geometry": { "type": "Point", "coordinates": [ -0.290012, 5.5972 ] } },