{
  "version": 0.6,
  "generator": "Overpass API",
  "osm3s": {
    "timestamp_osm_base": "2017-04-04T16:38:02Z",
    "copyright": "The data included in this document is from www.openstreetmap.org. The data is made available under ODbL."
  },
  "elements": [

{
  "type": "node",
  "id": 1102519112,
  "lat": 6.3671433,
  "lon": 2.4595376,
  "timestamp": "2015-01-30T06:44:08Z",
  "version": 4,
  "changeset": 28499192,
  "user": "benoitberlin",
  "uid": 1197015,
  "tags": {
    "amenity": "townhall",
    "name": "Mairie de Cotonou"
  }
},
{
  "type": "node",
  "id": 3636317141,
  "lat": 6.5226053,
  "lon": 2.6676140,
  "timestamp": "2015-07-06T06:04:40Z",
  "version": 1,
  "changeset": 32440654,
  "user": "benoitberlin",
  "uid": 1197015,
  "tags": {
    "amenity": "townhall",
    "name": "Mairie d'Adjarra"
  }
},
{
  "type": "node",
  "id": 4212421285,
  "lat": 6.3818969,
  "lon": 2.6037637,
  "timestamp": "2016-05-28T13:44:48Z",
  "version": 1,
  "changeset": 39624555,
  "user": "nerus1er",
  "uid": 3323102,
  "tags": {
    "amenity": "townhall",
    "name": "Mairie Seme Podji"
  }
},
{
  "type": "way",
  "id": 235099160,
  "timestamp": "2013-08-26T08:26:29Z",
  "version": 1,
  "changeset": 17512077,
  "user": "boroles",
  "uid": 1718426,
  "center": {
    "lat": 6.3658853,
    "lon": 2.4552067
  },
  "nodes": [
    2431957512,
    2431957510,
    2431957509,
    2431957511,
    2431957512
  ],
  "tags": {
    "amenity": "townhall",
    "building": "yes",
    "man_made": "tower",
    "name": "Ministère de la Santé",
    "office": "administrative",
    "source": "Bing;survey"
  }
},
{
  "type": "way",
  "id": 366465312,
  "timestamp": "2016-04-14T20:16:55Z",
  "version": 2,
  "changeset": 38568053,
  "user": "Sam AGBADONOU",
  "uid": 1718307,
  "center": {
    "lat": 6.4598508,
    "lon": 2.5442779
  },
  "nodes": [
    3704441199,
    3704441200,
    3704441201,
    3704441202,
    3704441199
  ],
  "tags": {
    "amenity": "townhall",
    "building": "yes",
    "name": "Arrondissement de Zoungamè"
  }
},
{
  "type": "way",
  "id": 415781858,
  "timestamp": "2016-10-10T06:58:43Z",
  "version": 3,
  "changeset": 42769636,
  "user": "sommerluk",
  "uid": 1700634,
  "center": {
    "lat": 6.4323940,
    "lon": 2.6679751
  },
  "nodes": [
    4167450237,
    4167450235,
    4167450226,
    4167450228,
    4167450237
  ],
  "tags": {
    "amenity": "townhall",
    "building": "yes",
    "name": "Arrondissement de Tohouè"
  }
}

  ]
}
