{
"type": "FeatureCollection",
"features": [
{
  "type": "Feature",
  "id": "way/91274323",
  "properties": {
    "timestamp": "2016-03-01T00:41:07Z",
    "version": 9,
    "changeset": 37533901,
    "user": "ulrichm",
    "uid": 192829,
    "amenity": "hospital",
    "barrier": "wall",
    "leisure": "garden",
    "name": "Centre Hospitalier Universitaire de Treichville",
    "short_name": "CHU de Treichville",
    "id": "way/91274323"
  },
  "geometry": {
    "type": "Point",
    "coordinates": [
      -4.0035691,
      5.2915831
    ]
  }
},
{
  "type": "Feature",
  "id": "way/123439289",
  "properties": {
    "timestamp": "2016-03-08T01:59:52Z",
    "version": 5,
    "changeset": 37677846,
    "user": "ulrichm",
    "uid": 192829,
    "addr:city": "Treichville",
    "addr:country": "CI",
    "addr:state": "Abidjan",
    "addr:street": "Avenue Clouzet",
    "amenity": "hospital",
    "building": "yes",
    "emergency": "no",
    "name": "Centre Hospitalier d'Arras 3",
    "id": "way/123439289"
  },
  "geometry": {
    "type": "Point",
    "coordinates": [
      -3.9996691,
      5.3020571
    ]
  }
},
{
  "type": "Feature",
  "id": "way/185201535",
  "properties": {
    "timestamp": "2016-03-08T11:30:38Z",
    "version": 3,
    "changeset": 37684457,
    "user": "ulrichm",
    "uid": 192829,
    "addr:city": "Marcory",
    "addr:country": "CI",
    "addr:state": "Abidjan",
    "amenity": "hospital",
    "name": "Hôpital général de Marcory(Ex PMI)",
    "id": "way/185201535"
  },
  "geometry": {
    "type": "Point",
    "coordinates": [
      -3.983179,
      5.3006843
    ]
  }
},
{
  "type": "Feature",
  "id": "way/236144501",
  "properties": {
    "timestamp": "2015-12-19T15:22:18Z",
    "version": 3,
    "changeset": 36048017,
    "user": "ulrichm",
    "uid": 192829,
    "amenity": "hospital",
    "barrier": "wall",
    "leisure": "garden",
    "name": "Formation Urbaine d'Anoumabo",
    "id": "way/236144501"
  },
  "geometry": {
    "type": "Point",
    "coordinates": [
      -3.9742066,
      5.3103925
    ]
  }
},
{
  "type": "Feature",
  "id": "way/237862810",
  "properties": {
    "timestamp": "2014-10-14T07:57:03Z",
    "version": 2,
    "changeset": 26066283,
    "user": "Skiper",
    "uid": 306409,
    "amenity": "hospital",
    "building": "yes",
    "emergency": "no",
    "name": "Centre Asapsu",
    "id": "way/237862810"
  },
  "geometry": {
    "type": "Point",
    "coordinates": [
      -3.9671121,
      5.3097281
    ]
  }
},
{
  "type": "Feature",
  "id": "way/237899323",
  "properties": {
    "timestamp": "2013-09-14T07:50:24Z",
    "version": 1,
    "changeset": 17828633,
    "user": "Emmanuel Bama",
    "uid": 1704472,
    "amenity": "hospital",
    "building": "yes",
    "id": "way/237899323"
  },
  "geometry": {
    "type": "Point",
    "coordinates": [
      -3.9610028,
      5.309767
    ]
  }
},
{
  "type": "Feature",
  "id": "way/271270193",
  "properties": {
    "timestamp": "2014-10-14T07:57:02Z",
    "version": 2,
    "changeset": 26066283,
    "user": "Skiper",
    "uid": 306409,
    "amenity": "hospital",
    "name": "Centre de Santé Aklomiabla",
    "id": "way/271270193"
  },
  "geometry": {
    "type": "Point",
    "coordinates": [
      -3.9425323,
      5.3143497
    ]
  }
},
{
  "type": "Feature",
  "id": "way/286247735",
  "properties": {
    "timestamp": "2016-02-29T18:53:30Z",
    "version": 2,
    "changeset": 37527824,
    "user": "ulrichm",
    "uid": 192829,
    "amenity": "hospital",
    "name": "Clinique les Grâces",
    "id": "way/286247735"
  },
  "geometry": {
    "type": "Point",
    "coordinates": [
      -3.9778971,
      5.2875928
    ]
  }
},
{
  "type": "Feature",
  "id": "way/326163566",
  "properties": {
    "timestamp": "2016-10-16T12:54:21Z",
    "version": 5,
    "changeset": 42935549,
    "user": "johanemilsson",
    "uid": 559500,
    "addr:city": "Cocody",
    "addr:country": "CI",
    "addr:housename": "Polyclinique Internationale Sainte Anne-Marie (PISAM)",
    "addr:state": "Abidjan",
    "addr:street": "Avenue Joseph Blohorn",
    "addr:suburb": "Vieux Cocody",
    "amenity": "hospital",
    "barrier": "wall",
    "emergency": "yes",
    "internet_access": "wlan",
    "is_in": "Vieux Cocody;Cocody;Abidjan;Côte d'Ivoire",
    "name": "Polyclinique Internationale Sainte Anne-Marie (PISAM)",
    "phone": "+225-22.48.31.31",
    "short_name": "PISAM",
    "website": "http://www.pisam.ci/",
    "id": "way/326163566"
  },
  "geometry": {
    "type": "Point",
    "coordinates": [
      -4.0133509,
      5.3368409
    ]
  }
},
{
  "type": "Feature",
  "id": "way/327402561",
  "properties": {
    "timestamp": "2016-08-20T16:22:37Z",
    "version": 7,
    "changeset": 41578872,
    "user": "ulrichm",
    "uid": 192829,
    "addr:city": "Cocody",
    "addr:country": "CI",
    "addr:state": "Abidjan",
    "addr:street": "Boulevard de l'Université",
    "addr:suburb": "RTI",
    "amenity": "hospital",
    "emergency": "yes",
    "is_in": "RTI;Cocody;Abidjan;Côte d'Ivoire",
    "name": "Centre hospitalier universitaire de Cocody (CHU de Cocody)",
    "name:en": "University Hospital of Cocody (CHU de Cocody)",
    "name:fr": "Centre hospitalier universitaire de Cocody (CHU de Cocody)",
    "id": "way/327402561"
  },
  "geometry": {
    "type": "Point",
    "coordinates": [
      -3.9938504,
      5.3423413
    ]
  }
},
{
  "type": "Feature",
  "id": "way/355534059",
  "properties": {
    "timestamp": "2017-03-22T09:43:06Z",
    "version": 3,
    "changeset": 47063120,
    "user": "ulrichm",
    "uid": 192829,
    "amenity": "hospital",
    "building": "university",
    "name": "centre medical social",
    "operator": "UNA",
    "id": "way/355534059"
  },
  "geometry": {
    "type": "Point",
    "coordinates": [
      -4.0165433,
      5.3904096
    ]
  }
},
{
  "type": "Feature",
  "id": "way/397380212",
  "properties": {
    "timestamp": "2016-02-12T01:13:12Z",
    "version": 1,
    "changeset": 37159525,
    "user": "ulrichm",
    "uid": 192829,
    "amenity": "hospital",
    "barrier": "wall",
    "name": "Hôpital Général d'Angré",
    "id": "way/397380212"
  },
  "geometry": {
    "type": "Point",
    "coordinates": [
      -3.9575588,
      5.4008898
    ]
  }
},
{
  "type": "Feature",
  "id": "way/426830439",
  "properties": {
    "timestamp": "2017-01-26T19:42:26Z",
    "version": 2,
    "changeset": 45525281,
    "user": "Aleks-Berlin",
    "uid": 85218,
    "addr:city": "Plateau",
    "addr:housenumber": "26",
    "addr:street": "Avenue Chardy",
    "amenity": "hospital",
    "elevator": "2ème étage",
    "name": "Centre Médical Chardy",
    "note": "centremedicalchardy@hotmail.fr",
    "operator": "Dr Hussein Chalhoub",
    "phone": "+225 20 33 90 00",
    "id": "way/426830439"
  },
  "geometry": {
    "type": "Point",
    "coordinates": [
      -4.0159116,
      5.3238666
    ]
  }
},
{
  "type": "Feature",
  "id": "way/430269309",
  "properties": {
    "timestamp": "2017-03-21T10:55:31Z",
    "version": 2,
    "changeset": 47036606,
    "user": "ulrichm",
    "uid": 192829,
    "amenity": "hospital",
    "building": "yes",
    "id": "way/430269309"
  },
  "geometry": {
    "type": "Point",
    "coordinates": [
      -3.9844688,
      5.3449951
    ]
  }
},
{
  "type": "Feature",
  "id": "way/447285100",
  "properties": {
    "timestamp": "2016-10-12T19:31:50Z",
    "version": 1,
    "changeset": 42838597,
    "user": "ulrichm",
    "uid": 192829,
    "addr:city": "Marcory",
    "addr:country": "CI",
    "addr:state": "Abidjan",
    "addr:street": "Rue des Azobés",
    "amenity": "hospital",
    "name": "Nouvelle Clinique Farah",
    "phone": "+225-21 26 00 93",
    "website": "http://www.cliniquefarah.com/",
    "id": "way/447285100"
  },
  "geometry": {
    "type": "Point",
    "coordinates": [
      -3.9862356,
      5.3110434
    ]
  }
},
{
  "type": "Feature",
  "id": "way/447285101",
  "properties": {
    "timestamp": "2016-10-12T19:31:50Z",
    "version": 1,
    "changeset": 42838597,
    "user": "ulrichm",
    "uid": 192829,
    "addr:city": "Marcory",
    "addr:country": "CI",
    "addr:state": "Abidjan",
    "amenity": "hospital",
    "landuse": "construction",
    "name": "Nouvelle Clinique Farah",
    "phone": "+225-21 26 00 93",
    "website": "http://www.cliniquefarah.com/",
    "id": "way/447285101"
  },
  "geometry": {
    "type": "Point",
    "coordinates": [
      -3.9865886,
      5.3107226
    ]
  }
},
{
  "type": "Feature",
  "id": "node/452867581",
  "properties": {
    "timestamp": "2016-02-13T17:27:58Z",
    "version": 3,
    "changeset": 37191054,
    "user": "ulrichm",
    "uid": 192829,
    "amenity": "hospital",
    "name": "Polyclinique Le Panthéon Médical",
    "id": "node/452867581"
  },
  "geometry": {
    "type": "Point",
    "coordinates": [
      -3.957518,
      5.353641
    ]
  }
},
{
  "type": "Feature",
  "id": "node/454153807",
  "properties": {
    "timestamp": "2013-01-03T23:34:55Z",
    "version": 3,
    "changeset": 14520436,
    "user": "Skiper",
    "uid": 306409,
    "amenity": "hospital",
    "emergency": "no",
    "name": "Centre médical Victoria de la Riviera",
    "id": "node/454153807"
  },
  "geometry": {
    "type": "Point",
    "coordinates": [
      -3.9654195,
      5.3573151
    ]
  }
},
{
  "type": "Feature",
  "id": "node/454166819",
  "properties": {
    "timestamp": "2009-08-02T10:42:24Z",
    "version": 1,
    "changeset": 2011555,
    "user": "tpiot",
    "uid": 152016,
    "amenity": "hospital",
    "name": "Centre Médical Joëlle C",
    "id": "node/454166819"
  },
  "geometry": {
    "type": "Point",
    "coordinates": [
      -3.9537051,
      5.3539965
    ]
  }
},
{
  "type": "Feature",
  "id": "node/454167530",
  "properties": {
    "timestamp": "2016-02-13T17:27:58Z",
    "version": 3,
    "changeset": 37191054,
    "user": "ulrichm",
    "uid": 192829,
    "amenity": "hospital",
    "name": "Centre d'Acumpuncture Chinois",
    "id": "node/454167530"
  },
  "geometry": {
    "type": "Point",
    "coordinates": [
      -3.9565789,
      5.3540375
    ]
  }
},
{
  "type": "Feature",
  "id": "node/775786939",
  "properties": {
    "timestamp": "2013-12-11T00:09:41Z",
    "version": 2,
    "changeset": 19386626,
    "user": "A KACOU",
    "uid": 1487267,
    "amenity": "hospital",
    "emergency": "no",
    "name": "Centre de santé communautaire",
    "id": "node/775786939"
  },
  "geometry": {
    "type": "Point",
    "coordinates": [
      -3.9623644,
      5.3633032
    ]
  }
},
{
  "type": "Feature",
  "id": "node/1225061670",
  "properties": {
    "timestamp": "2011-03-30T09:29:13Z",
    "version": 1,
    "changeset": 7714393,
    "user": "FredB",
    "uid": 1626,
    "amenity": "hospital",
    "name": "Hôpital Militaire d'Abidjan",
    "source": "http://www.abidjandirect.net/index2.php?page=actualite&id=797",
    "id": "node/1225061670"
  },
  "geometry": {
    "type": "Point",
    "coordinates": [
      -4.0076459,
      5.3808261
    ]
  }
},
{
  "type": "Feature",
  "id": "node/1236320723",
  "properties": {
    "timestamp": "2011-04-07T17:35:25Z",
    "version": 1,
    "changeset": 7796612,
    "user": "FredB",
    "uid": 1626,
    "amenity": "hospital",
    "name": "Polyclinique Avicennes",
    "id": "node/1236320723"
  },
  "geometry": {
    "type": "Point",
    "coordinates": [
      -3.9966411,
      5.3162
    ]
  }
},
{
  "type": "Feature",
  "id": "node/1363721586",
  "properties": {
    "timestamp": "2011-07-16T18:36:55Z",
    "version": 1,
    "changeset": 8741907,
    "user": "Pierre Drevon",
    "uid": 463200,
    "amenity": "hospital",
    "emergency": "no",
    "name": "Centre de santé communautaire d'Akouedo-Attie",
    "id": "node/1363721586"
  },
  "geometry": {
    "type": "Point",
    "coordinates": [
      -3.9265239,
      5.3568479
    ]
  }
},
{
  "type": "Feature",
  "id": "node/1951165098",
  "properties": {
    "timestamp": "2015-05-07T22:29:38Z",
    "version": 2,
    "changeset": 30887306,
    "user": "ulrichm",
    "uid": 192829,
    "amenity": "hospital",
    "name": "Hôpital de Port-Bouët",
    "id": "node/1951165098"
  },
  "geometry": {
    "type": "Point",
    "coordinates": [
      -3.9622511,
      5.2623425
    ]
  }
},
{
  "type": "Feature",
  "id": "node/1951724361",
  "properties": {
    "timestamp": "2016-03-03T00:08:09Z",
    "version": 2,
    "changeset": 37576713,
    "user": "ulrichm",
    "uid": 192829,
    "amenity": "hospital",
    "name": "Hopital général de Koumassi",
    "id": "node/1951724361"
  },
  "geometry": {
    "type": "Point",
    "coordinates": [
      -3.9694052,
      5.2872334
    ]
  }
},
{
  "type": "Feature",
  "id": "node/2381546282",
  "properties": {
    "timestamp": "2013-07-13T16:33:56Z",
    "version": 2,
    "changeset": 16938855,
    "user": "desmanois",
    "uid": 1634648,
    "amenity": "hospital",
    "emergency": "no",
    "name": "Croix Bleue",
    "id": "node/2381546282"
  },
  "geometry": {
    "type": "Point",
    "coordinates": [
      -4.0178162,
      5.3632813
    ]
  }
},
{
  "type": "Feature",
  "id": "node/2382090539",
  "properties": {
    "timestamp": "2013-07-12T08:11:26Z",
    "version": 1,
    "changeset": 16922803,
    "user": "desmanois",
    "uid": 1634648,
    "amenity": "hospital",
    "emergency": "no",
    "name": "Maternité Urbaine de Williamsville",
    "id": "node/2382090539"
  },
  "geometry": {
    "type": "Point",
    "coordinates": [
      -4.0232747,
      5.3672232
    ]
  }
},
{
  "type": "Feature",
  "id": "node/2427130119",
  "properties": {
    "timestamp": "2016-03-08T11:31:22Z",
    "version": 4,
    "changeset": 37684457,
    "user": "ulrichm",
    "uid": 192829,
    "addr:city": "Attécoubé",
    "addr:country": "CI",
    "addr:state": "Abidjan",
    "amenity": "hospital",
    "name": "PMI",
    "id": "node/2427130119"
  },
  "geometry": {
    "type": "Point",
    "coordinates": [
      -4.0332404,
      5.3496529
    ]
  }
},
{
  "type": "Feature",
  "id": "node/2440400044",
  "properties": {
    "timestamp": "2014-09-28T13:47:01Z",
    "version": 2,
    "changeset": 25725716,
    "user": "Skiper",
    "uid": 306409,
    "amenity": "hospital",
    "name": "Laboratoire du Cmb Fleming",
    "id": "node/2440400044"
  },
  "geometry": {
    "type": "Point",
    "coordinates": [
      -3.9821776,
      5.2930608
    ]
  }
},
{
  "type": "Feature",
  "id": "node/2443095363",
  "properties": {
    "timestamp": "2013-09-02T15:57:02Z",
    "version": 2,
    "changeset": 17638626,
    "user": "racky",
    "uid": 1730834,
    "amenity": "hospital",
    "emergency": "yes",
    "name": "Hopital general d'Abobo",
    "id": "node/2443095363"
  },
  "geometry": {
    "type": "Point",
    "coordinates": [
      -4.016503,
      5.4237341
    ]
  }
},
{
  "type": "Feature",
  "id": "node/2452125558",
  "properties": {
    "timestamp": "2013-09-09T19:00:26Z",
    "version": 1,
    "changeset": 17755358,
    "user": "desmanois",
    "uid": 1634648,
    "amenity": "hospital",
    "emergency": "no",
    "name": "Cabinet dentaire",
    "phone": "20372431",
    "id": "node/2452125558"
  },
  "geometry": {
    "type": "Point",
    "coordinates": [
      -4.0168178,
      5.3487426
    ]
  }
},
{
  "type": "Feature",
  "id": "node/2461273777",
  "properties": {
    "timestamp": "2016-03-08T02:01:50Z",
    "version": 7,
    "changeset": 37677846,
    "user": "ulrichm",
    "uid": 192829,
    "addr:city": "Marcory",
    "addr:country": "CI",
    "addr:state": "Abidjan",
    "addr:street": "Rue E 7",
    "amenity": "hospital",
    "emergency": "no",
    "name": "Clinique médicale Koko",
    "id": "node/2461273777"
  },
  "geometry": {
    "type": "Point",
    "coordinates": [
      -3.9734755,
      5.3114387
    ]
  }
},
{
  "type": "Feature",
  "id": "node/2463107744",
  "properties": {
    "timestamp": "2016-03-08T02:01:59Z",
    "version": 4,
    "changeset": 37677846,
    "user": "ulrichm",
    "uid": 192829,
    "addr:city": "Yopougon",
    "addr:country": "CI",
    "addr:state": "Abidjan",
    "addr:street": "Avenue Marie-Thérèse-Houphouët-Boigny",
    "amenity": "hospital",
    "name": "Hôpital général de Yopougon-Attié",
    "old_name": "PMI de Yopougon",
    "operator": "Ministère de la Santé et de la lutte contre le sida",
    "phone": "+225 23454390",
    "id": "node/2463107744"
  },
  "geometry": {
    "type": "Point",
    "coordinates": [
      -4.0800624,
      5.3419518
    ]
  }
},
{
  "type": "Feature",
  "id": "node/2489420736",
  "properties": {
    "timestamp": "2016-03-08T11:31:04Z",
    "version": 6,
    "changeset": 37684457,
    "user": "ulrichm",
    "uid": 192829,
    "addr:city": "Cocody",
    "addr:country": "CI",
    "addr:pobox": "01 BP 1224 Abidjan 01",
    "addr:postcode": "01",
    "addr:state": "Abidjan",
    "addr:street": "Rue L130",
    "addr:suburb": "Angré",
    "amenity": "hospital",
    "name": "Centre Medical Nimatoullah",
    "operator": "Fondation Dr. Javad Nurbakhsh",
    "phone": "+225 22427182",
    "id": "node/2489420736"
  },
  "geometry": {
    "type": "Point",
    "coordinates": [
      -3.9939118,
      5.3987428
    ]
  }
},
{
  "type": "Feature",
  "id": "node/2493219528",
  "properties": {
    "timestamp": "2016-03-08T02:01:45Z",
    "version": 4,
    "changeset": 37677846,
    "user": "ulrichm",
    "uid": 192829,
    "addr:city": "Adjamé",
    "addr:country": "CI",
    "addr:state": "Abidjan",
    "addr:street": "Boulevard Nangui Abrogroua",
    "amenity": "hospital",
    "emergency": "no",
    "name": "Centre Medico-social",
    "phone": "+225 20224433",
    "id": "node/2493219528"
  },
  "geometry": {
    "type": "Point",
    "coordinates": [
      -4.0260969,
      5.3412228
    ]
  }
},
{
  "type": "Feature",
  "id": "node/2493737349",
  "properties": {
    "timestamp": "2013-10-12T13:51:49Z",
    "version": 1,
    "changeset": 18315378,
    "user": "kalmis",
    "uid": 1772669,
    "amenity": "hospital",
    "name": "Clinique Axe optique",
    "id": "node/2493737349"
  },
  "geometry": {
    "type": "Point",
    "coordinates": [
      -3.9558489,
      5.2939016
    ]
  }
},
{
  "type": "Feature",
  "id": "node/2604141815",
  "properties": {
    "timestamp": "2014-01-01T07:25:26Z",
    "version": 1,
    "changeset": 19741370,
    "user": "Guy Maurel KONAN",
    "uid": 1703949,
    "amenity": "hospital",
    "name": "Clinique Liring",
    "id": "node/2604141815"
  },
  "geometry": {
    "type": "Point",
    "coordinates": [
      -3.9707658,
      5.2981314
    ]
  }
},
{
  "type": "Feature",
  "id": "node/2760759391",
  "properties": {
    "timestamp": "2014-04-02T14:51:00Z",
    "version": 5,
    "changeset": 21459865,
    "user": "israel konan",
    "uid": 1751022,
    "amenity": "hospital",
    "name": "Centre Médico Social",
    "id": "node/2760759391"
  },
  "geometry": {
    "type": "Point",
    "coordinates": [
      -3.9477124,
      5.3101063
    ]
  }
},
{
  "type": "Feature",
  "id": "node/3015620997",
  "properties": {
    "timestamp": "2016-02-19T16:37:03Z",
    "version": 3,
    "changeset": 37312208,
    "user": "ulrichm",
    "uid": 192829,
    "amenity": "hospital",
    "name": "La Rosette Laboratoire",
    "id": "node/3015620997"
  },
  "geometry": {
    "type": "Point",
    "coordinates": [
      -4.0032332,
      5.3013838
    ]
  }
},
{
  "type": "Feature",
  "id": "node/3017000111",
  "properties": {
    "timestamp": "2014-08-14T19:34:51Z",
    "version": 1,
    "changeset": 24753352,
    "user": "korsaga",
    "uid": 1703734,
    "amenity": "hospital",
    "name": "centre medical de la cite de l'enfance croix rouge",
    "id": "node/3017000111"
  },
  "geometry": {
    "type": "Point",
    "coordinates": [
      -4.0186874,
      5.3491924
    ]
  }
},
{
  "type": "Feature",
  "id": "node/3017000124",
  "properties": {
    "timestamp": "2016-03-08T11:31:15Z",
    "version": 3,
    "changeset": 37684457,
    "user": "ulrichm",
    "uid": 192829,
    "addr:pobox": "08 BP 2450 Abidjan 08",
    "addr:postcode": "08 BP 2450 Abidjan 08",
    "amenity": "hospital",
    "description": "consultation opthamologie orl gynecologie dermatologie fibroendescopie imagerie medicale dentaire ...",
    "email": "hallmedinri@aviso.ci",
    "name": "Hall médical INRI de la fraternité",
    "phone": "20383418 20390065",
    "id": "node/3017000124"
  },
  "geometry": {
    "type": "Point",
    "coordinates": [
      -4.0220272,
      5.3491343
    ]
  }
},
{
  "type": "Feature",
  "id": "node/3144241936",
  "properties": {
    "timestamp": "2015-02-20T00:40:27Z",
    "version": 2,
    "changeset": 28968967,
    "user": "ulrichm",
    "uid": 192829,
    "amenity": "hospital",
    "name": "Clinique Médicale Sainte-Philomène",
    "id": "node/3144241936"
  },
  "geometry": {
    "type": "Point",
    "coordinates": [
      -3.9795361,
      5.3569692
    ]
  }
},
{
  "type": "Feature",
  "id": "node/3149011613",
  "properties": {
    "timestamp": "2014-10-25T12:31:00Z",
    "version": 1,
    "changeset": 26320223,
    "user": "sev_osm",
    "uid": 219668,
    "amenity": "hospital",
    "name": "Centre National de Transfusion Sanguine",
    "id": "node/3149011613"
  },
  "geometry": {
    "type": "Point",
    "coordinates": [
      -3.9966532,
      5.2916283
    ]
  }
},
{
  "type": "Feature",
  "id": "node/3193990990",
  "properties": {
    "timestamp": "2016-03-01T09:08:38Z",
    "version": 2,
    "changeset": 37538074,
    "user": "ulrichm",
    "uid": 192829,
    "amenity": "hospital",
    "emergency": "yes",
    "fixme": "nom?? / name??",
    "id": "node/3193990990"
  },
  "geometry": {
    "type": "Point",
    "coordinates": [
      -4.0248754,
      5.3440088
    ]
  }
},
{
  "type": "Feature",
  "id": "node/3194527904",
  "properties": {
    "timestamp": "2014-11-18T20:48:25Z",
    "version": 1,
    "changeset": 26873616,
    "user": "georgiamcmillan",
    "uid": 2464020,
    "amenity": "hospital",
    "id": "node/3194527904"
  },
  "geometry": {
    "type": "Point",
    "coordinates": [
      -4.0063383,
      5.3938983
    ]
  }
},
{
  "type": "Feature",
  "id": "node/3194527905",
  "properties": {
    "timestamp": "2014-11-18T20:48:25Z",
    "version": 1,
    "changeset": 26873616,
    "user": "georgiamcmillan",
    "uid": 2464020,
    "amenity": "hospital",
    "id": "node/3194527905"
  },
  "geometry": {
    "type": "Point",
    "coordinates": [
      -4.0059563,
      5.3915916
    ]
  }
},
{
  "type": "Feature",
  "id": "node/3282137848",
  "properties": {
    "timestamp": "2015-01-11T14:56:26Z",
    "version": 1,
    "changeset": 28064113,
    "user": "racky",
    "uid": 1730834,
    "amenity": "hospital",
    "id": "node/3282137848"
  },
  "geometry": {
    "type": "Point",
    "coordinates": [
      -4.0318186,
      5.4162938
    ]
  }
},
{
  "type": "Feature",
  "id": "node/3282170098",
  "properties": {
    "timestamp": "2015-06-18T18:45:23Z",
    "version": 2,
    "changeset": 32058510,
    "user": "ulrichm",
    "uid": 192829,
    "amenity": "hospital",
    "id": "node/3282170098"
  },
  "geometry": {
    "type": "Point",
    "coordinates": [
      -3.9955778,
      5.4130137
    ]
  }
},
{
  "type": "Feature",
  "id": "node/3282322584",
  "properties": {
    "timestamp": "2015-01-11T15:44:18Z",
    "version": 1,
    "changeset": 28065209,
    "user": "racky",
    "uid": 1730834,
    "amenity": "hospital",
    "id": "node/3282322584"
  },
  "geometry": {
    "type": "Point",
    "coordinates": [
      -3.9898318,
      5.4230333
    ]
  }
},
{
  "type": "Feature",
  "id": "node/3369247647",
  "properties": {
    "timestamp": "2015-02-23T22:40:50Z",
    "version": 1,
    "changeset": 29056258,
    "user": "Emmanuel Bama",
    "uid": 1704472,
    "amenity": "hospital",
    "name": "centre de Santé Communautaire de la Cité Houphouet Boigny",
    "id": "node/3369247647"
  },
  "geometry": {
    "type": "Point",
    "coordinates": [
      -3.9357264,
      5.3099955
    ]
  }
},
{
  "type": "Feature",
  "id": "node/3767112013",
  "properties": {
    "timestamp": "2015-10-01T11:00:51Z",
    "version": 1,
    "changeset": 34365119,
    "user": "Djakaridja",
    "uid": 3272427,
    "amenity": "hospital",
    "name": "Hôpital Mère-Enfant de Bingerville",
    "id": "node/3767112013"
  },
  "geometry": {
    "type": "Point",
    "coordinates": [
      -3.8841499,
      5.3606488
    ]
  }
},
{
  "type": "Feature",
  "id": "node/3784306923",
  "properties": {
    "timestamp": "2015-10-13T08:53:14Z",
    "version": 1,
    "changeset": 34606316,
    "user": "yoannes28",
    "uid": 3303951,
    "amenity": "hospital",
    "name": "Clinique externat saint paul",
    "id": "node/3784306923"
  },
  "geometry": {
    "type": "Point",
    "coordinates": [
      -4.0214181,
      5.3258684
    ]
  }
},
{
  "type": "Feature",
  "id": "node/3784306925",
  "properties": {
    "timestamp": "2015-10-13T08:53:14Z",
    "version": 1,
    "changeset": 34606316,
    "user": "yoannes28",
    "uid": 3303951,
    "amenity": "hospital",
    "name": "Pharmacie des finances",
    "id": "node/3784306925"
  },
  "geometry": {
    "type": "Point",
    "coordinates": [
      -4.0203882,
      5.325871
    ]
  }
},
{
  "type": "Feature",
  "id": "node/3978718027",
  "properties": {
    "timestamp": "2017-03-20T21:54:57Z",
    "version": 5,
    "changeset": 47025058,
    "user": "ulrichm",
    "uid": 192829,
    "addr:city": "Cocody",
    "addr:country": "CI",
    "addr:pobox": "28 BP 1138 Abidjan 28",
    "addr:postcode": "28",
    "addr:state": "Abidjan",
    "addr:street": "Rue L237",
    "addr:suburb": "Angré",
    "amenity": "hospital",
    "name": "Centre de santé urbain d'Angré",
    "phone": "00225 22525542",
    "id": "node/3978718027"
  },
  "geometry": {
    "type": "Point",
    "coordinates": [
      -3.9846254,
      5.405196
    ]
  }
},
{
  "type": "Feature",
  "id": "node/3978739725",
  "properties": {
    "timestamp": "2016-03-08T02:01:47Z",
    "version": 3,
    "changeset": 37677846,
    "user": "ulrichm",
    "uid": 192829,
    "addr:city": "Cocody",
    "addr:country": "CI",
    "addr:postcode": "BP 51 Cidex 3 Abidjan",
    "addr:state": "Abidjan",
    "addr:street": "Rue I145",
    "addr:suburb": "Riviera Palmeraie",
    "amenity": "hospital",
    "name": "Centre médical Mère Maria Elisa Adreoli",
    "phone": "+225 22490348",
    "id": "node/3978739725"
  },
  "geometry": {
    "type": "Point",
    "coordinates": [
      -3.9590557,
      5.3648561
    ]
  }
},
{
  "type": "Feature",
  "id": "node/3982237902",
  "properties": {
    "timestamp": "2016-03-07T15:56:25Z",
    "version": 3,
    "changeset": 37668416,
    "user": "ulrichm",
    "uid": 192829,
    "addr:city": "Cocody",
    "addr:country": "CI",
    "addr:state": "Abidjan",
    "addr:street": "Rue K126",
    "addr:suburb": "Gendarmerie Agban",
    "amenity": "hospital",
    "name": "Centre de Santé",
    "id": "node/3982237902"
  },
  "geometry": {
    "type": "Point",
    "coordinates": [
      -4.0060247,
      5.3748913
    ]
  }
},
{
  "type": "Feature",
  "id": "node/4019798767",
  "properties": {
    "timestamp": "2017-03-02T15:48:56Z",
    "version": 4,
    "changeset": 46525445,
    "user": "vherbreteau",
    "uid": 2538376,
    "addr:city": "Le Plateau",
    "addr:housenumber": "4",
    "addr:street": "Boulevard de L'indénié",
    "amenity": "hospital",
    "emergency": "yes",
    "name": "Polyclinique de l'Indenié",
    "website": "http://www.polycliniqueindenie.ci/",
    "id": "node/4019798767"
  },
  "geometry": {
    "type": "Point",
    "coordinates": [
      -4.0190773,
      5.3384806
    ]
  }
},
{
  "type": "Feature",
  "id": "node/4019808596",
  "properties": {
    "timestamp": "2016-02-22T14:15:44Z",
    "version": 1,
    "changeset": 37368239,
    "user": "racky",
    "uid": 1730834,
    "amenity": "hospital",
    "name": "Hôpital général d'Adjamé",
    "id": "node/4019808596"
  },
  "geometry": {
    "type": "Point",
    "coordinates": [
      -4.0253048,
      5.3490993
    ]
  }
},
{
  "type": "Feature",
  "id": "node/4019811761",
  "properties": {
    "timestamp": "2017-03-22T11:59:48Z",
    "version": 2,
    "changeset": 47066144,
    "user": "ulrichm",
    "uid": 192829,
    "amenity": "hospital",
    "name": "centremedical de la mairie",
    "id": "node/4019811761"
  },
  "geometry": {
    "type": "Point",
    "coordinates": [
      -3.9695626,
      5.2896778
    ]
  }
},
{
  "type": "Feature",
  "id": "node/4019858299",
  "properties": {
    "timestamp": "2016-06-27T16:10:58Z",
    "version": 2,
    "changeset": 40324895,
    "user": "Anebo Philippe",
    "uid": 2231043,
    "amenity": "hospital",
    "designation": "Centre Hospitalier Universitaire de Yopougon",
    "emergency": "yes",
    "name": "Centre Hospitalier Universitaire de Yopougon",
    "short_name": "CHU de Yopougon",
    "id": "node/4019858299"
  },
  "geometry": {
    "type": "Point",
    "coordinates": [
      -4.089517,
      5.3576504
    ]
  }
},
{
  "type": "Feature",
  "id": "node/4019888798",
  "properties": {
    "timestamp": "2016-02-22T14:56:31Z",
    "version": 1,
    "changeset": 37369248,
    "user": "racky",
    "uid": 1730834,
    "amenity": "hospital",
    "name": "Centre de Santé El Rapha",
    "id": "node/4019888798"
  },
  "geometry": {
    "type": "Point",
    "coordinates": [
      -4.0198537,
      5.404256
    ]
  }
},
{
  "type": "Feature",
  "id": "node/4019911996",
  "properties": {
    "timestamp": "2016-06-30T04:30:18Z",
    "version": 2,
    "changeset": 40381173,
    "user": "sommerluk",
    "uid": 1700634,
    "amenity": "hospital",
    "name": "Dispensaire de M’Badon",
    "id": "node/4019911996"
  },
  "geometry": {
    "type": "Point",
    "coordinates": [
      -3.9349913,
      5.3310283
    ]
  }
},
{
  "type": "Feature",
  "id": "node/4019925584",
  "properties": {
    "timestamp": "2016-02-22T15:18:10Z",
    "version": 1,
    "changeset": 37369724,
    "user": "racky",
    "uid": 1730834,
    "amenity": "hospital",
    "name": "Hôpital général de Bingerville",
    "id": "node/4019925584"
  },
  "geometry": {
    "type": "Point",
    "coordinates": [
      -3.8859607,
      5.359723
    ]
  }
},
{
  "type": "Feature",
  "id": "node/4019925585",
  "properties": {
    "timestamp": "2016-02-22T15:18:10Z",
    "version": 1,
    "changeset": 37369724,
    "user": "racky",
    "uid": 1730834,
    "amenity": "hospital",
    "name": "Hôpital psychiatrique de Bingerville",
    "id": "node/4019925585"
  },
  "geometry": {
    "type": "Point",
    "coordinates": [
      -3.8839226,
      5.3597809
    ]
  }
},
{
  "type": "Feature",
  "id": "node/4247072824",
  "properties": {
    "timestamp": "2016-06-16T17:28:59Z",
    "version": 1,
    "changeset": 40072491,
    "user": "Anebo Philippe",
    "uid": 2231043,
    "amenity": "hospital",
    "name": "Centre de Sante Communautaire Doukoure",
    "id": "node/4247072824"
  },
  "geometry": {
    "type": "Point",
    "coordinates": [
      -4.073555,
      5.3346465
    ]
  }
},
{
  "type": "Feature",
  "id": "node/4249745831",
  "properties": {
    "timestamp": "2016-06-18T01:54:33Z",
    "version": 1,
    "changeset": 40107993,
    "user": "eriola ezekiel",
    "uid": 4133911,
    "amenity": "hospital",
    "name": "Pharmacie Christ Stella",
    "id": "node/4249745831"
  },
  "geometry": {
    "type": "Point",
    "coordinates": [
      -4.0343327,
      5.3572007
    ]
  }
},
{
  "type": "Feature",
  "id": "node/4344227839",
  "properties": {
    "timestamp": "2016-08-10T10:34:08Z",
    "version": 1,
    "changeset": 41364489,
    "user": "GUy Pacome",
    "uid": 2132030,
    "amenity": "hospital",
    "name": "Clinique Béatitudes",
    "id": "node/4344227839"
  },
  "geometry": {
    "type": "Point",
    "coordinates": [
      -3.9958218,
      5.3488038
    ]
  }
},
{
  "type": "Feature",
  "id": "node/4485187391",
  "properties": {
    "timestamp": "2016-11-09T22:12:43Z",
    "version": 2,
    "changeset": 43521338,
    "user": "sommerluk",
    "uid": 1700634,
    "addr:street": "Boulevard Felix Houphouët Boigny",
    "amenity": "hospital",
    "name": "Maternité d’Attecoubé",
    "id": "node/4485187391"
  },
  "geometry": {
    "type": "Point",
    "coordinates": [
      -4.0347417,
      5.3530094
    ]
  }
}
]
}
